{
"type": "FeatureCollection",
"name": "planets",
"crs": { "type": "name", "properties": { "name": "urn:ogc:def:crs:OGC:1.3:CRS84" } },
"features": [
{ "type": "Feature", "properties": { "cartodb_id": 1, "objectid": 1, "name": "Prakith", "uid": 1, "link": "http:\/\/starwars.wikia.com\/wiki\/Prakith", "grid": "K-10", "x": -44.579, "y": -88.82, "sector": "", "region": "Deep Core", "canon": 1, "zm": 1, "name0": "prakith", "name1": "", "name2": "", "lat": -11.88211283, "long": -6.006845897 }, "geometry": { "type": "Point", "coordinates": [ -6.006845897, -11.88211283 ] } },
{ "type": "Feature", "properties": { "cartodb_id": 2, "objectid": 2, "name": "Keeara Major", "uid": 2, "link": "http:\/\/starwars.wikia.com\/wiki\/Keeara_Major", "grid": "K-10", "x": -7.337, "y": -58.352, "sector": "", "region": "Deep Core", "canon": 0, "zm": 2, "name0": "keeara major", "name1": "", "name2": "", "lat": -7.838225078, "long": -0.9885974632 }, "geometry": { "type": "Point", "coordinates": [ -0.9885974632, -7.838225078 ] } },
{ "type": "Feature", "properties": { "cartodb_id": 3, "objectid": 3, "name": "Symbia", "uid": 3, "link": "http:\/\/starwars.wikia.com\/wiki\/Symbia", "grid": "K-10", "x": -10.185, "y": -51.878, "sector": "", "region": "Deep Core", "canon": 0, "zm": 2, "name0": "symbia", "name1": "", "name2": "", "lat": -6.973095548, "long": -1.372460212 }, "geometry": { "type": "Point", "coordinates": [ -1.372460212, -6.973095548 ] } },
{ "type": "Feature", "properties": { "cartodb_id": 4, "objectid": 4, "name": "Kuar", "uid": 4, "link": "http:\/\/starwars.wikia.com\/wiki\/Kuar", "grid": "K-10", "x": -1.898, "y": -45.231, "sector": "", "region": "Deep Core", "canon": 0, "zm": 2, "name0": "kuar", "name1": "", "name2": "", "lat": -6.083232487, "long": -0.255768581 }, "geometry": { "type": "Point", "coordinates": [ -0.255768581, -6.083232487 ] } },
{ "type": "Feature", "properties": { "cartodb_id": 5, "objectid": 5, "name": "Odik", "uid": 5, "link": "http:\/\/starwars.wikia.com\/wiki\/Odik", "grid": "K-11", "x": -76.85, "y": -109.79, "sector": "", "region": "Deep Core", "canon": 0, "zm": 2, "name0": "odik", "name1": "", "name2": "", "lat": -14.632174, "long": -10.35535167 }, "geometry": { "type": "Point", "coordinates": [ -10.35535167, -14.632174 ] } },
{ "type": "Feature", "properties": { "cartodb_id": 6, "objectid": 6, "name": "Byss", "uid": 6, "link": "http:\/\/starwars.wikia.com\/wiki\/Byss", "grid": "K-11", "x": -48.074, "y": -182.068, "sector": "", "region": "Deep Core", "canon": 1, "zm": 0, "name0": "byss", "name1": "", "name2": "", "lat": -23.81614421, "long": -6.477794603 }, "geometry": { "type": "Point", "coordinates": [ -6.477794603, -23.81614421 ] } },
{ "type": "Feature", "properties": { "cartodb_id": 7, "objectid": 7, "name": "Kalist", "uid": 7, "link": "http:\/\/starwars.wikia.com\/wiki\/Kalist_VI", "grid": "K-12", "x": -13.642, "y": -202.323, "sector": "", "region": "Deep Core", "canon": 1, "zm": 1, "name0": "kalist", "name1": "", "name2": "", "lat": -26.28836503, "long": -1.838160597 }, "geometry": { "type": "Point", "coordinates": [ -1.838160597, -26.28836503 ] } },
{ "type": "Feature", "properties": { "cartodb_id": 8, "objectid": 8, "name": "Zamael", "uid": 8, "link": "http:\/\/starwars.wikia.com\/wiki\/Zamael", "grid": "K-12", "x": -13.411, "y": -213.257, "sector": "", "region": "Deep Core", "canon": 0, "zm": 2, "name0": "zamael", "name1": "", "name2": "", "lat": -27.60178227, "long": -1.807141385 }, "geometry": { "type": "Point", "coordinates": [ -1.807141385, -27.60178227 ] } },
{ "type": "Feature", "properties": { "cartodb_id": 9, "objectid": 9, "name": "Lialic", "uid": 9, "link": "http:\/\/starwars.wikia.com\/wiki\/Lialic", "grid": "K-12", "x": -16.634, "y": -226.839, "sector": "", "region": "Deep Core", "canon": 0, "zm": 2, "name0": "lialic", "name1": "", "name2": "", "lat": -29.21147199, "long": -2.241410353 }, "geometry": { "type": "Point", "coordinates": [ -2.241410353, -29.21147199 ] } },
{ "type": "Feature", "properties": { "cartodb_id": 10, "objectid": 10, "name": "Constancia", "uid": 10, "link": "http:\/\/starwars.wikia.com\/wiki\/Constancia", "grid": "K-12", "x": -14.059, "y": -242.179, "sector": "", "region": "Deep Core", "canon": 0, "zm": 2, "name0": "constancia", "name1": "", "name2": "", "lat": -30.99951068, "long": -1.894406854 }, "geometry": { "type": "Point", "coordinates": [ -1.894406854, -30.99951068 ] } },
{ "type": "Feature", "properties": { "cartodb_id": 11, "objectid": 11, "name": "Dulvoyinn", "uid": 11, "link": "http:\/\/starwars.wikia.com\/wiki\/Dulvoyinn", "grid": "K-12", "x": -3.441, "y": -246.927, "sector": "", "region": "Deep Core", "canon": 0, "zm": 2, "name0": "dulvoyinn", "name1": "", "name2": "", "lat": -31.54632231, "long": -0.4636457024 }, "geometry": { "type": "Point", "coordinates": [ -0.4636457024, -31.54632231 ] } },
{ "type": "Feature", "properties": { "cartodb_id": 12, "objectid": 12, "name": "Tython", "uid": 12, "link": "http:\/\/starwars.wikia.com\/wiki\/Tython", "grid": "L-10", "x": 1.279, "y": -78.258, "sector": "", "region": "Deep Core", "canon": 1, "zm": 0, "name0": "tython", "name1": "kalimahr", "name2": "", "lat": -10.48605575, "long": 0.1723970696 }, "geometry": { "type": "Point", "coordinates": [ 0.1723970696, -10.48605575 ] } },
{ "type": "Feature", "properties": { "cartodb_id": 13, "objectid": 13, "name": "Had Abbadon", "uid": 13, "link": "http:\/\/starwars.wikia.com\/wiki\/Had_Abbadon", "grid": "L-10", "x": 74.369, "y": -78.834, "sector": "", "region": "Deep Core", "canon": 0, "zm": 2, "name0": "had abbadon", "name1": "", "name2": "", "lat": -10.56229925, "long": 10.02099687 }, "geometry": { "type": "Point", "coordinates": [ 10.02099687, -10.56229925 ] } },
{ "type": "Feature", "properties": { "cartodb_id": 14, "objectid": 14, "name": "Cambria", "uid": 14, "link": "http:\/\/starwars.wikia.com\/wiki\/Cambria", "grid": "L-10", "x": 93.111, "y": -58.448, "sector": "", "region": "Deep Core", "canon": 0, "zm": 2, "name0": "cambria", "name1": "", "name2": "", "lat": -7.851028798, "long": 12.54644181 }, "geometry": { "type": "Point", "coordinates": [ 12.54644181, -7.851028798 ] } },
{ "type": "Feature", "properties": { "cartodb_id": 15, "objectid": 15, "name": "Vulpter", "uid": 15, "link": "http:\/\/starwars.wikia.com\/wiki\/Vulpter", "grid": "L-10", "x": 58.406, "y": -49.045, "sector": "", "region": "Deep Core", "canon": 1, "zm": 1, "name0": "vulpter", "name1": "", "name2": "", "lat": -6.59405981, "long": 7.870116093 }, "geometry": { "type": "Point", "coordinates": [ 7.870116093, -6.59405981 ] } },
{ "type": "Feature", "properties": { "cartodb_id": 16, "objectid": 16, "name": "Besero", "uid": 16, "link": "http:\/\/starwars.wikia.com\/wiki\/Besero", "grid": "L-10", "x": 49.601, "y": -38.168, "sector": "", "region": "Deep Core", "canon": 0, "zm": 2, "name0": "besero", "name1": "", "name2": "", "lat": -5.136114536, "long": 6.683631236 }, "geometry": { "type": "Point", "coordinates": [ 6.683631236, -5.136114536 ] } },
{ "type": "Feature", "properties": { "cartodb_id": 17, "objectid": 17, "name": "Primus Goluud", "uid": 17, "link": "http:\/\/starwars.wikia.com\/wiki\/Primus_Goluud", "grid": "L-10", "x": 36.48, "y": -36.096, "sector": "", "region": "Deep Core", "canon": 0, "zm": 2, "name0": "primus goluud", "name1": "", "name2": "", "lat": -4.858002994, "long": 4.915536154 }, "geometry": { "type": "Point", "coordinates": [ 4.915536154, -4.858002994 ] } },
{ "type": "Feature", "properties": { "cartodb_id": 18, "objectid": 18, "name": "Empress Teta", "uid": 18, "link": "http:\/\/starwars.wikia.com\/wiki\/Empress_Teta", "grid": "L-10", "x": 1.987, "y": -52.137, "sector": "", "region": "Deep Core", "canon": 1, "zm": 0, "name0": "empress teta", "name1": "koros major", "name2": "", "lat": -7.007732758, "long": 0.2676806208 }, "geometry": { "type": "Point", "coordinates": [ 0.2676806208, -7.007732758 ] } },
{ "type": "Feature", "properties": { "cartodb_id": 19, "objectid": 19, "name": "Iope", "uid": 19, "link": "http:\/\/starwars.wikia.com\/wiki\/Iope", "grid": "U-12", "x": 943.08, "y": -225.899, "sector": "Baxel", "region": "Outer Rim", "canon": 0, "zm": 2, "name0": "iope", "name1": "", "name2": "", "lat": -29.10083608, "long": 127.0775195 }, "geometry": { "type": "Point", "coordinates": [ 127.0775195, -29.10083608 ] } },
{ "type": "Feature", "properties": { "cartodb_id": 20, "objectid": 20, "name": "Starswarm Cluster", "uid": 20, "link": "http:\/\/starwars.wikia.com\/wiki\/Starswarm_Cluster", "grid": "L-10", "x": 9.756, "y": -39.965, "sector": "", "region": "Deep Core", "canon": 0, "zm": 2, "name0": "starswarm cluster", "name1": "", "name2": "", "lat": -5.377218238, "long": 1.314579024 }, "geometry": { "type": "Point", "coordinates": [ 1.314579024, -5.377218238 ] } },
{ "type": "Feature", "properties": { "cartodb_id": 21, "objectid": 21, "name": "Jerrilek", "uid": 21, "link": "http:\/\/starwars.wikia.com\/wiki\/Jerrilek", "grid": "L-10", "x": 1.946, "y": -24.051, "sector": "", "region": "Deep Core", "canon": 0, "zm": 2, "name0": "jerrilek", "name1": "", "name2": "", "lat": -3.239091842, "long": 0.2621876357 }, "geometry": { "type": "Point", "coordinates": [ 0.2621876357, -3.239091842 ] } },
{ "type": "Feature", "properties": { "cartodb_id": 22, "objectid": 22, "name": "Tsoss Beacon", "uid": 22, "link": "http:\/\/starwars.wikia.com\/wiki\/Tsoss_Beacon", "grid": "L-11", "x": 11.408, "y": -105.307, "sector": "", "region": "Deep Core", "canon": 0, "zm": 2, "name0": "tsoss beacon", "name1": "", "name2": "", "lat": -14.04697554, "long": 1.537242396 }, "geometry": { "type": "Point", "coordinates": [ 1.537242396, -14.04697554 ] } },
{ "type": "Feature", "properties": { "cartodb_id": 23, "objectid": 23, "name": "Eclipse", "uid": 23, "link": "http:\/\/starwars.wikia.com\/wiki\/Eclipse", "grid": "L-11", "x": 99.245, "y": -176.94, "sector": "", "region": "Deep Core", "canon": 0, "zm": 2, "name0": "eclipse", "name1": "", "name2": "", "lat": -23.18242817, "long": 13.37304237 }, "geometry": { "type": "Point", "coordinates": [ 13.37304237, -23.18242817 ] } },
{ "type": "Feature", "properties": { "cartodb_id": 24, "objectid": 24, "name": "Crystan", "uid": 24, "link": "http:\/\/starwars.wikia.com\/wiki\/Crystan", "grid": "L-12", "x": 13.406, "y": -246.885, "sector": "", "region": "Deep Core", "canon": 0, "zm": 2, "name0": "crystan", "name1": "", "name2": "", "lat": -31.54154918, "long": 1.806357462 }, "geometry": { "type": "Point", "coordinates": [ 1.806357462, -31.54154918 ] } },
{ "type": "Feature", "properties": { "cartodb_id": 25, "objectid": 25, "name": "Khomm", "uid": 25, "link": "http:\/\/starwars.wikia.com\/wiki\/Khomm", "grid": "L-12", "x": 12.507, "y": -255.138, "sector": "", "region": "Deep Core", "canon": 0, "zm": 1, "name0": "khomm", "name1": "", "name2": "", "lat": -32.48438612, "long": 1.685296371 }, "geometry": { "type": "Point", "coordinates": [ 1.685296371, -32.48438612 ] } },
{ "type": "Feature", "properties": { "cartodb_id": 26, "objectid": 26, "name": "Dremulae", "uid": 26, "link": "http:\/\/starwars.wikia.com\/wiki\/Dremulae", "grid": "M-10", "x": 101.765, "y": -73.526, "sector": "", "region": "Deep Core", "canon": 0, "zm": 2, "name0": "dremulae", "name1": "", "name2": "", "lat": -9.858464511, "long": 13.7125703 }, "geometry": { "type": "Point", "coordinates": [ 13.7125703, -9.858464511 ] } },
{ "type": "Feature", "properties": { "cartodb_id": 27, "objectid": 27, "name": "Ojom", "uid": 27, "link": "http:\/\/starwars.wikia.com\/wiki\/Ojom", "grid": "M-11", "x": 107.856, "y": -163.279, "sector": "", "region": "Deep Core", "canon": 1, "zm": 1, "name0": "ojom", "name1": "", "name2": "", "lat": -21.47976866, "long": 14.53335477 }, "geometry": { "type": "Point", "coordinates": [ 14.53335477, -21.47976866 ] } },
{ "type": "Feature", "properties": { "cartodb_id": 28, "objectid": 28, "name": "Ottabesk", "uid": 28, "link": "http:\/\/starwars.wikia.com\/wiki\/Ottabesk", "grid": "M-11", "x": 112.906, "y": -159.264, "sector": "", "region": "Deep Core", "canon": 0, "zm": 2, "name0": "ottabesk", "name1": "", "name2": "", "lat": -20.97557368, "long": 15.21383873 }, "geometry": { "type": "Point", "coordinates": [ 15.21383873, -20.97557368 ] } },
{ "type": "Feature", "properties": { "cartodb_id": 29, "objectid": 29, "name": "Hakassi", "uid": 29, "link": "http:\/\/starwars.wikia.com\/wiki\/Hakassi", "grid": "M-11", "x": 113.302, "y": -152.812, "sector": "", "region": "Deep Core", "canon": 0, "zm": 2, "name0": "hakassi", "name1": "", "name2": "", "lat": -20.16150401, "long": 15.267153 }, "geometry": { "type": "Point", "coordinates": [ 15.267153, -20.16150401 ] } },
{ "type": "Feature", "properties": { "cartodb_id": 30, "objectid": 30, "name": "Ebaq", "uid": 30, "link": "http:\/\/starwars.wikia.com\/wiki\/Ebaq", "grid": "M-11", "x": 106.137, "y": -143.229, "sector": "", "region": "Deep Core", "canon": 0, "zm": 2, "name0": "ebaq", "name1": "", "name2": "", "lat": -18.94481822, "long": 14.30168003 }, "geometry": { "type": "Point", "coordinates": [ 14.30168003, -18.94481822 ] } },
{ "type": "Feature", "properties": { "cartodb_id": 31, "objectid": 31, "name": "Thoadeye", "uid": 31, "link": "http:\/\/starwars.wikia.com\/wiki\/Thoadeye", "grid": "M-11", "x": 118.939, "y": -112.328, "sector": "", "region": "Deep Core", "canon": 0, "zm": 2, "name0": "thoadeye", "name1": "", "name2": "", "lat": -14.9628333, "long": 16.02669287 }, "geometry": { "type": "Point", "coordinates": [ 16.02669287, -14.9628333 ] } },
{ "type": "Feature", "properties": { "cartodb_id": 32, "objectid": 32, "name": "Galactic Center", "uid": 32, "link": "http:\/\/starwars.wikia.com\/wiki\/Galactic_Center", "grid": "K-11", "x": 0.0, "y": -142.091, "sector": "", "region": "Deep Core", "canon": 0, "zm": 2, "name0": "galactic center", "name1": "", "name2": "", "lat": -18.7997056, "long": 0.0 }, "geometry": { "type": "Point", "coordinates": [ 0.0, -18.7997056 ] } },
{ "type": "Feature", "properties": { "cartodb_id": 33, "objectid": 33, "name": "Kokash", "uid": 33, "link": "http:\/\/starwars.wikia.com\/wiki\/Kokash", "grid": "J-10", "x": -110.308, "y": -65.502, "sector": "", "region": "Core", "canon": 0, "zm": 2, "name0": "kokash", "name1": "", "name2": "", "lat": -8.791489705, "long": -14.86372713 }, "geometry": { "type": "Point", "coordinates": [ -14.86372713, -8.791489705 ] } },
{ "type": "Feature", "properties": { "cartodb_id": 34, "objectid": 34, "name": "Pollillus", "uid": 34, "link": "http:\/\/starwars.wikia.com\/wiki\/Pollillus", "grid": "J-10", "x": -101.33, "y": -63.89, "sector": "", "region": "Core", "canon": 1, "zm": 2, "name0": "pollillus", "name1": "", "name2": "", "lat": -8.57684466, "long": -13.65397786 }, "geometry": { "type": "Point", "coordinates": [ -13.65397786, -8.57684466 ] } },
{ "type": "Feature", "properties": { "cartodb_id": 35, "objectid": 35, "name": "Osssorck Nebulae", "uid": 35, "link": "http:\/\/starwars.wikia.com\/wiki\/Osssorck_Nebulae", "grid": "J-12", "x": -101.59, "y": -266.91, "sector": "", "region": "Core", "canon": 0, "zm": 2, "name0": "osssorck nebulae", "name1": "", "name2": "", "lat": -33.81249042, "long": -13.68895348 }, "geometry": { "type": "Point", "coordinates": [ -13.68895348, -33.81249042 ] } },
{ "type": "Feature", "properties": { "cartodb_id": 36, "objectid": 36, "name": "Questal", "uid": 36, "link": "http:\/\/starwars.wikia.com\/wiki\/Questal", "grid": "J-12", "x": -117.741, "y": -273.815, "sector": "", "region": "Core", "canon": 1, "zm": 2, "name0": "questal", "name1": "", "name2": "", "lat": -34.58199022, "long": -15.86533996 }, "geometry": { "type": "Point", "coordinates": [ -15.86533996, -34.58199022 ] } },
{ "type": "Feature", "properties": { "cartodb_id": 37, "objectid": 37, "name": "Kitel Phard", "uid": 37, "link": "http:\/\/starwars.wikia.com\/wiki\/Kitel_Phard", "grid": "J-12", "x": -132.66, "y": -286.761, "sector": "", "region": "Core", "canon": 0, "zm": 1, "name0": "kitel phard", "name1": "", "name2": "", "lat": -36.00572142, "long": -17.87559006 }, "geometry": { "type": "Point", "coordinates": [ -17.87559006, -36.00572142 ] } },
{ "type": "Feature", "properties": { "cartodb_id": 38, "objectid": 38, "name": "Inysh", "uid": 38, "link": "http:\/\/starwars.wikia.com\/wiki\/Inysh", "grid": "J-12", "x": -118.605, "y": -295.761, "sector": "", "region": "Core", "canon": 0, "zm": 2, "name0": "inysh", "name1": "", "name2": "", "lat": -36.98069627, "long": -15.98163542 }, "geometry": { "type": "Point", "coordinates": [ -15.98163542, -36.98069627 ] } },
{ "type": "Feature", "properties": { "cartodb_id": 39, "objectid": 39, "name": "Dahrtag", "uid": 39, "link": "http:\/\/starwars.wikia.com\/wiki\/Dahrtag", "grid": "J-13", "x": -105.612, "y": -314.795, "sector": "", "region": "Core", "canon": 0, "zm": 2, "name0": "dahrtag", "name1": "", "name2": "", "lat": -39.00174061, "long": -14.2309734 }, "geometry": { "type": "Point", "coordinates": [ -14.2309734, -39.00174061 ] } },
{ "type": "Feature", "properties": { "cartodb_id": 40, "objectid": 40, "name": "Metellos", "uid": 40, "link": "http:\/\/starwars.wikia.com\/wiki\/Metellos", "grid": "K-9", "x": -13.508, "y": 1.228, "sector": "", "region": "Core", "canon": 0, "zm": 2, "name0": "metellos", "name1": "", "name2": "", "lat": 0.1655019184, "long": -1.820148498 }, "geometry": { "type": "Point", "coordinates": [ -1.820148498, 0.1655019184 ] } },
{ "type": "Feature", "properties": { "cartodb_id": 41, "objectid": 41, "name": "Xa Fel", "uid": 41, "link": "http:\/\/starwars.wikia.com\/wiki\/Xa_Fel", "grid": "K-9", "x": -92.698, "y": 33.046, "sector": "", "region": "Core", "canon": 1, "zm": 2, "name0": "xa fel", "name1": "", "name2": "", "lat": 4.448382084, "long": -12.49085141 }, "geometry": { "type": "Point", "coordinates": [ -12.49085141, 4.448382084 ] } },
{ "type": "Feature", "properties": { "cartodb_id": 42, "objectid": 42, "name": "Ragoon", "uid": 42, "link": "http:\/\/starwars.wikia.com\/wiki\/Ragoon", "grid": "K-9", "x": -81.735, "y": 16.126, "sector": "", "region": "Core", "canon": 0, "zm": 2, "name0": "ragoon", "name1": "", "name2": "", "lat": 2.172425037, "long": -11.01356144 }, "geometry": { "type": "Point", "coordinates": [ -11.01356144, 2.172425037 ] } },
{ "type": "Feature", "properties": { "cartodb_id": 43, "objectid": 43, "name": "Merakai", "uid": 43, "link": "http:\/\/starwars.wikia.com\/wiki\/Merakai", "grid": "K-9", "x": -61.722, "y": 51.288, "sector": "", "region": "Core", "canon": 0, "zm": 2, "name0": "merakai", "name1": "", "name2": "", "lat": 6.894191387, "long": -8.316828696 }, "geometry": { "type": "Point", "coordinates": [ -8.316828696, 6.894191387 ] } },
{ "type": "Feature", "properties": { "cartodb_id": 44, "objectid": 44, "name": "Denevar", "uid": 44, "link": "http:\/\/starwars.wikia.com\/wiki\/Denevar", "grid": "K-9", "x": -48.611, "y": 52.89, "sector": "", "region": "Core", "canon": 0, "zm": 2, "name0": "denevar", "name1": "", "name2": "", "lat": 7.10850398, "long": -6.55018764 }, "geometry": { "type": "Point", "coordinates": [ -6.55018764, 7.10850398 ] } },
{ "type": "Feature", "properties": { "cartodb_id": 45, "objectid": 45, "name": "Pantolomin", "uid": 45, "link": "http:\/\/starwars.wikia.com\/wiki\/Pantolomin", "grid": "K-9", "x": -37.227, "y": 44.441, "sector": "", "region": "Core", "canon": 0, "zm": 1, "name0": "pantolomin", "name1": "", "name2": "", "lat": 5.977436246, "long": -5.016190674 }, "geometry": { "type": "Point", "coordinates": [ -5.016190674, 5.977436246 ] } },
{ "type": "Feature", "properties": { "cartodb_id": 46, "objectid": 46, "name": "Dachat", "uid": 46, "link": "http:\/\/starwars.wikia.com\/wiki\/Dachat", "grid": "K-9", "x": -59.211, "y": 37.88, "sector": "", "region": "Core", "canon": 0, "zm": 2, "name0": "dachat", "name1": "", "name2": "", "lat": 5.09752311, "long": -7.978525416 }, "geometry": { "type": "Point", "coordinates": [ -7.978525416, 5.09752311 ] } },
{ "type": "Feature", "properties": { "cartodb_id": 47, "objectid": 47, "name": "Voon", "uid": 47, "link": "http:\/\/starwars.wikia.com\/wiki\/Voon", "grid": "K-9", "x": -37.112, "y": 36.844, "sector": "", "region": "Core", "canon": 0, "zm": 2, "name0": "voon", "name1": "", "name2": "", "lat": 4.958473821, "long": -5.000681068 }, "geometry": { "type": "Point", "coordinates": [ -5.000681068, 4.958473821 ] } },
{ "type": "Feature", "properties": { "cartodb_id": 48, "objectid": 48, "name": "Hyabb", "uid": 48, "link": "http:\/\/starwars.wikia.com\/wiki\/Hyabb", "grid": "K-9", "x": -46.78, "y": 31.204, "sector": "", "region": "Core", "canon": 0, "zm": 2, "name0": "hyabb", "name1": "", "name2": "", "lat": 4.200935132, "long": -6.303487971 }, "geometry": { "type": "Point", "coordinates": [ -6.303487971, 4.200935132 ] } },
{ "type": "Feature", "properties": { "cartodb_id": 49, "objectid": 49, "name": "Farrfin", "uid": 49, "link": "http:\/\/starwars.wikia.com\/wiki\/Farrfin", "grid": "K-9", "x": -25.163, "y": 52.031, "sector": "", "region": "Core", "canon": 0, "zm": 2, "name0": "farrfin", "name1": "", "name2": "", "lat": 6.993649585, "long": -3.390697802 }, "geometry": { "type": "Point", "coordinates": [ -3.390697802, 6.993649585 ] } },
{ "type": "Feature", "properties": { "cartodb_id": 50, "objectid": 50, "name": "Twith", "uid": 50, "link": "http:\/\/starwars.wikia.com\/wiki\/Twith", "grid": "K-9", "x": -28.501, "y": 42.593, "sector": "", "region": "Core", "canon": 0, "zm": 2, "name0": "twith", "name1": "", "name2": "", "lat": 5.729719524, "long": -3.840476376 }, "geometry": { "type": "Point", "coordinates": [ -3.840476376, 5.729719524 ] } },
{ "type": "Feature", "properties": { "cartodb_id": 51, "objectid": 51, "name": "Scipio", "uid": 51, "link": "http:\/\/starwars.wikia.com\/wiki\/Scipio", "grid": "K-5", "x": -64.533, "y": 481.957, "sector": "Albarrio", "region": "Outer Rim", "canon": 1, "zm": 2, "name0": "scipio", "name1": "", "name2": "", "lat": 54.31142739, "long": -8.695589072000001 }, "geometry": { "type": "Point", "coordinates": [ -8.695589072, 54.31142739 ] } },
{ "type": "Feature", "properties": { "cartodb_id": 52, "objectid": 52, "name": "Galvoni", "uid": 52, "link": "http:\/\/starwars.wikia.com\/wiki\/Galvoni", "grid": "K-9", "x": -15.034, "y": 29.587, "sector": "", "region": "Core", "canon": 0, "zm": 2, "name0": "galvoni", "name1": "", "name2": "", "lat": 3.983494919, "long": -2.025852476 }, "geometry": { "type": "Point", "coordinates": [ -2.025852476, 3.983494919 ] } },
{ "type": "Feature", "properties": { "cartodb_id": 53, "objectid": 53, "name": "Weerden", "uid": 53, "link": "http:\/\/starwars.wikia.com\/wiki\/Weerden", "grid": "K-9", "x": -13.768, "y": 18.076, "sector": "", "region": "Core", "canon": 0, "zm": 2, "name0": "weerden", "name1": "", "name2": "", "lat": 2.435014063, "long": -1.855246811 }, "geometry": { "type": "Point", "coordinates": [ -1.855246811, 2.435014063 ] } },
{ "type": "Feature", "properties": { "cartodb_id": 54, "objectid": 54, "name": "Tanjay", "uid": 54, "link": "http:\/\/starwars.wikia.com\/wiki\/Tanjay", "grid": "K-9", "x": -7.092, "y": 11.746, "sector": "", "region": "Core", "canon": 0, "zm": 2, "name0": "tanjay", "name1": "", "name2": "", "lat": 1.582517824, "long": -0.9556896635 }, "geometry": { "type": "Point", "coordinates": [ -0.9556896635, 1.582517824 ] } },
{ "type": "Feature", "properties": { "cartodb_id": 55, "objectid": 55, "name": "Mamendin", "uid": 55, "link": "http:\/\/starwars.wikia.com\/wiki\/Mamendin", "grid": "K-9", "x": -9.279, "y": 58.707, "sector": "", "region": "Core", "canon": 0, "zm": 2, "name0": "mamendin", "name1": "", "name2": "", "lat": 7.885624788, "long": -1.250372177 }, "geometry": { "type": "Point", "coordinates": [ -1.250372177, 7.885624788 ] } },
{ "type": "Feature", "properties": { "cartodb_id": 56, "objectid": 56, "name": "Tamban", "uid": 56, "link": "http:\/\/starwars.wikia.com\/wiki\/Tamban", "grid": "K-10", "x": -95.23, "y": -45.474, "sector": "", "region": "Core", "canon": 0, "zm": 2, "name0": "tamban", "name1": "", "name2": "", "lat": -6.115873363, "long": -12.83196874 }, "geometry": { "type": "Point", "coordinates": [ -12.83196874, -6.115873363 ] } },
{ "type": "Feature", "properties": { "cartodb_id": 57, "objectid": 57, "name": "Aradia", "uid": 57, "link": "http:\/\/starwars.wikia.com\/wiki\/Aradia", "grid": "K-10", "x": -90.281, "y": -35.0, "sector": "", "region": "Core", "canon": 0, "zm": 2, "name0": "aradia", "name1": "", "name2": "", "lat": -4.710829777, "long": -12.16505569 }, "geometry": { "type": "Point", "coordinates": [ -12.16505569, -4.710829777 ] } },
{ "type": "Feature", "properties": { "cartodb_id": 58, "objectid": 58, "name": "Cal-Seti", "uid": 58, "link": "http:\/\/starwars.wikia.com\/wiki\/Cal-Seti", "grid": "K-10", "x": -73.936, "y": -34.194, "sector": "", "region": "Core", "canon": 0, "zm": 2, "name0": "cal-seti", "name1": "calseti", "name2": "cal seti", "lat": -4.602620932, "long": -9.962691638000001 }, "geometry": { "type": "Point", "coordinates": [ -9.962691638, -4.602620932 ] } },
{ "type": "Feature", "properties": { "cartodb_id": 59, "objectid": 59, "name": "N'Zoth", "uid": 59, "link": "http:\/\/starwars.wikia.com\/wiki\/N'Zoth", "grid": "K-10", "x": -95.69, "y": -57.768, "sector": "", "region": "Core", "canon": 0, "zm": 1, "name0": "n'zoth", "name1": "nzoth", "name2": "", "lat": -7.760179791, "long": -12.89400717 }, "geometry": { "type": "Point", "coordinates": [ -12.89400717, -7.760179791 ] } },
{ "type": "Feature", "properties": { "cartodb_id": 60, "objectid": 60, "name": "Fresia", "uid": 60, "link": "http:\/\/starwars.wikia.com\/wiki\/Fresia", "grid": "K-10", "x": -58.167, "y": -29.475, "sector": "", "region": "Core", "canon": 0, "zm": 2, "name0": "fresia", "name1": "", "name2": "", "lat": -3.968508324, "long": -7.837875619 }, "geometry": { "type": "Point", "coordinates": [ -7.837875619, -3.968508324 ] } },
{ "type": "Feature", "properties": { "cartodb_id": 61, "objectid": 61, "name": "Galand", "uid": 61, "link": "http:\/\/starwars.wikia.com\/wiki\/Galand", "grid": "K-10", "x": -53.563, "y": -23.72, "sector": "", "region": "Core", "canon": 0, "zm": 2, "name0": "galand", "name1": "", "name2": "", "lat": -3.19454853, "long": -7.21749138 }, "geometry": { "type": "Point", "coordinates": [ -7.21749138, -3.19454853 ] } },
{ "type": "Feature", "properties": { "cartodb_id": 62, "objectid": 62, "name": "Alland", "uid": 62, "link": "http:\/\/starwars.wikia.com\/wiki\/Alland", "grid": "K-10", "x": -45.966, "y": -14.397, "sector": "", "region": "Core", "canon": 0, "zm": 2, "name0": "alland", "name1": "", "name2": "", "lat": -1.939556323, "long": -6.193857385 }, "geometry": { "type": "Point", "coordinates": [ -6.193857385, -1.939556323 ] } },
{ "type": "Feature", "properties": { "cartodb_id": 63, "objectid": 63, "name": "Worru'du", "uid": 63, "link": "http:\/\/starwars.wikia.com\/wiki\/Worru'du", "grid": "K-10", "x": -38.6, "y": -17.85, "sector": "", "region": "Core", "canon": 0, "zm": 2, "name0": "worru'du", "name1": "", "name2": "", "lat": -2.40450893, "long": -5.201242602 }, "geometry": { "type": "Point", "coordinates": [ -5.201242602, -2.40450893 ] } },
{ "type": "Feature", "properties": { "cartodb_id": 64, "objectid": 64, "name": "Salliche", "uid": 64, "link": "http:\/\/starwars.wikia.com\/wiki\/Salliche", "grid": "K-10", "x": -25.709, "y": -18.54, "sector": "", "region": "Core", "canon": 0, "zm": 2, "name0": "salliche", "name1": "", "name2": "", "lat": -2.497481423, "long": -3.464166733 }, "geometry": { "type": "Point", "coordinates": [ -3.464166733, -2.497481423 ] } },
{ "type": "Feature", "properties": { "cartodb_id": 65, "objectid": 65, "name": "Norkronia", "uid": 65, "link": "http:\/\/starwars.wikia.com\/wiki\/Norkronia", "grid": "K-10", "x": -33.42, "y": -6.829, "sector": "", "region": "Core", "canon": 0, "zm": 2, "name0": "norkronia", "name1": "", "name2": "", "lat": -0.9201307169, "long": -4.503310333 }, "geometry": { "type": "Point", "coordinates": [ -4.503310333, -0.9201307169 ] } },
{ "type": "Feature", "properties": { "cartodb_id": 66, "objectid": 66, "name": "Stassia", "uid": 66, "link": "http:\/\/starwars.wikia.com\/wiki\/Stassia", "grid": "K-10", "x": -13.278, "y": -11.433, "sector": "", "region": "Core", "canon": 0, "zm": 2, "name0": "stassia", "name1": "", "name2": "", "lat": -1.540368918, "long": -1.789129286 }, "geometry": { "type": "Point", "coordinates": [ -1.789129286, -1.540368918 ] } },
{ "type": "Feature", "properties": { "cartodb_id": 67, "objectid": 67, "name": "Foerost", "uid": 67, "link": "http:\/\/starwars.wikia.com\/wiki\/Foerost", "grid": "K-10", "x": -0.041, "y": -7.404, "sector": "", "region": "Core", "canon": 1, "zm": 2, "name0": "foerost", "name1": "", "name2": "", "lat": -0.9976678809, "long": -0.005524598573 }, "geometry": { "type": "Point", "coordinates": [ -0.005524598573, -0.9976678809 ] } },
{ "type": "Feature", "properties": { "cartodb_id": 68, "objectid": 68, "name": "Ruan", "uid": 68, "link": "http:\/\/starwars.wikia.com\/wiki\/Ruan", "grid": "K-10", "x": -0.041, "y": -13.85, "sector": "", "region": "Core", "canon": 0, "zm": 2, "name0": "ruan", "name1": "", "name2": "", "lat": -1.86592632, "long": -0.005524598573 }, "geometry": { "type": "Point", "coordinates": [ -0.005524598573, -1.86592632 ] } },
{ "type": "Feature", "properties": { "cartodb_id": 69, "objectid": 69, "name": "Galantos", "uid": 69, "link": "http:\/\/starwars.wikia.com\/wiki\/Galantos", "grid": "K-10", "x": -94.577, "y": -55.855, "sector": "", "region": "Core", "canon": 0, "zm": 2, "name0": "galantos", "name1": "", "name2": "", "lat": -7.504720361, "long": -12.74394805 }, "geometry": { "type": "Point", "coordinates": [ -12.74394805, -7.504720361 ] } },
{ "type": "Feature", "properties": { "cartodb_id": 70, "objectid": 70, "name": "J't'p'tan", "uid": 70, "link": "http:\/\/starwars.wikia.com\/wiki\/J't'p'tan", "grid": "K-10", "x": -96.605, "y": -56.56, "sector": "", "region": "Core", "canon": 0, "zm": 2, "name0": "j't'p'tan", "name1": "jtptan", "name2": "", "lat": -7.59896762, "long": -13.01727974 }, "geometry": { "type": "Point", "coordinates": [ -13.01727974, -7.59896762 ] } },
{ "type": "Feature", "properties": { "cartodb_id": 71, "objectid": 71, "name": "Botor", "uid": 71, "link": "http:\/\/starwars.wikia.com\/wiki\/Botor", "grid": "K-12", "x": -3.862, "y": -270.404, "sector": "", "region": "Core", "canon": 1, "zm": 1, "name0": "botor", "name1": "", "name2": "", "lat": -34.20273421, "long": -0.520374592 }, "geometry": { "type": "Point", "coordinates": [ -0.520374592, -34.20273421 ] } },
{ "type": "Feature", "properties": { "cartodb_id": 72, "objectid": 72, "name": "Thracior", "uid": 72, "link": "http:\/\/starwars.wikia.com\/wiki\/Thracior", "grid": "K-12", "x": -11.976, "y": -275.982, "sector": "", "region": "Core", "canon": 0, "zm": 2, "name0": "thracior", "name1": "", "name2": "", "lat": -34.82213339, "long": -1.613759592 }, "geometry": { "type": "Point", "coordinates": [ -1.613759592, -34.82213339 ] } },
{ "type": "Feature", "properties": { "cartodb_id": 73, "objectid": 73, "name": "Thebeon", "uid": 73, "link": "http:\/\/starwars.wikia.com\/wiki\/Thebeon", "grid": "K-12", "x": -31.435, "y": -299.213, "sector": "", "region": "Core", "canon": 0, "zm": 2, "name0": "thebeon", "name1": "", "name2": "", "lat": -37.35139275, "long": -4.235793906 }, "geometry": { "type": "Point", "coordinates": [ -4.235793906, -37.35139275 ] } },
{ "type": "Feature", "properties": { "cartodb_id": 74, "objectid": 74, "name": "Gerrard", "uid": 74, "link": "http:\/\/starwars.wikia.com\/wiki\/Gerrard", "grid": "K-12", "x": -3.447, "y": -295.268, "sector": "", "region": "Core", "canon": 0, "zm": 2, "name0": "gerrard", "name1": "", "name2": "", "lat": -36.92759132, "long": -0.4644982575 }, "geometry": { "type": "Point", "coordinates": [ -0.4644982575, -36.92759132 ] } },
{ "type": "Feature", "properties": { "cartodb_id": 75, "objectid": 75, "name": "Daupherm", "uid": 75, "link": "http:\/\/starwars.wikia.com\/wiki\/Daupherm", "grid": "K-12", "x": -18.489, "y": -267.033, "sector": "", "region": "Core", "canon": 0, "zm": 1, "name0": "daupherm", "name1": "", "name2": "", "lat": -33.82629297, "long": -2.491361998 }, "geometry": { "type": "Point", "coordinates": [ -2.491361998, -33.82629297 ] } },
{ "type": "Feature", "properties": { "cartodb_id": 76, "objectid": 76, "name": "Loedorvia", "uid": 76, "link": "http:\/\/starwars.wikia.com\/wiki\/Loedorvia", "grid": "K-12", "x": -87.534, "y": -242.868, "sector": "", "region": "Core", "canon": 0, "zm": 2, "name0": "loedorvia", "name1": "", "name2": "", "lat": -31.07901157, "long": -11.79499884 }, "geometry": { "type": "Point", "coordinates": [ -11.79499884, -31.07901157 ] } },
{ "type": "Feature", "properties": { "cartodb_id": 77, "objectid": 77, "name": "Cortina", "uid": 77, "link": "http:\/\/starwars.wikia.com\/wiki\/Cortina", "grid": "K-12", "x": -60.163, "y": -277.02, "sector": "", "region": "Core", "canon": 0, "zm": 2, "name0": "cortina", "name1": "", "name2": "", "lat": -34.93686274, "long": -8.106771378 }, "geometry": { "type": "Point", "coordinates": [ -8.106771378, -34.93686274 ] } },
{ "type": "Feature", "properties": { "cartodb_id": 78, "objectid": 78, "name": "Abregado-rae", "uid": 78, "link": "http:\/\/starwars.wikia.com\/wiki\/Abregado-rae", "grid": "K-13", "x": -4.434, "y": -316.721, "sector": "", "region": "Core", "canon": 1, "zm": 1, "name0": "abregado-rae", "name1": "abregadorae", "name2": "abregado rae", "lat": -39.20318573, "long": -0.5974073554 }, "geometry": { "type": "Point", "coordinates": [ -0.5974073554, -39.20318573 ] } },
{ "type": "Feature", "properties": { "cartodb_id": 79, "objectid": 79, "name": "Dentaal", "uid": 79, "link": "http:\/\/starwars.wikia.com\/wiki\/Dentaal", "grid": "K-13", "x": -4.31, "y": -325.845, "sector": "", "region": "Core", "canon": 0, "zm": 1, "name0": "dentaal", "name1": "", "name2": "", "lat": -40.14939194, "long": -0.5807937176 }, "geometry": { "type": "Point", "coordinates": [ -0.5807937176, -40.14939194 ] } },
{ "type": "Feature", "properties": { "cartodb_id": 80, "objectid": 80, "name": "Belgaroth", "uid": 80, "link": "http:\/\/starwars.wikia.com\/wiki\/Belgaroth", "grid": "K-13", "x": -11.955, "y": -334.352, "sector": "", "region": "Core", "canon": 0, "zm": 2, "name0": "belgaroth", "name1": "", "name2": "", "lat": -41.01995461, "long": -1.610839225 }, "geometry": { "type": "Point", "coordinates": [ -1.610839225, -41.01995461 ] } },
{ "type": "Feature", "properties": { "cartodb_id": 81, "objectid": 81, "name": "Steelious", "uid": 81, "link": "http:\/\/starwars.wikia.com\/wiki\/Steelious", "grid": "K-13", "x": -18.612, "y": -324.242, "sector": "", "region": "Core", "canon": 0, "zm": 2, "name0": "steelious", "name1": "", "name2": "", "lat": -39.98410573, "long": -2.507975635 }, "geometry": { "type": "Point", "coordinates": [ -2.507975635, -39.98410573 ] } },
{ "type": "Feature", "properties": { "cartodb_id": 82, "objectid": 82, "name": "Cuvacia", "uid": 82, "link": "http:\/\/starwars.wikia.com\/wiki\/Cuvacia", "grid": "K-13", "x": -93.206, "y": -304.268, "sector": "", "region": "Core", "canon": 0, "zm": 2, "name0": "cuvacia", "name1": "", "name2": "", "lat": -37.89091025, "long": -12.55922615 }, "geometry": { "type": "Point", "coordinates": [ -12.55922615, -37.89091025 ] } },
{ "type": "Feature", "properties": { "cartodb_id": 83, "objectid": 83, "name": "Illodia", "uid": 83, "link": "http:\/\/starwars.wikia.com\/wiki\/Illodia", "grid": "K-13", "x": -73.016, "y": -330.885, "sector": "", "region": "Core", "canon": 0, "zm": 2, "name0": "illodia", "name1": "", "name2": "", "lat": -40.66647398, "long": -9.838743058 }, "geometry": { "type": "Point", "coordinates": [ -9.838743058, -40.66647398 ] } },
{ "type": "Feature", "properties": { "cartodb_id": 84, "objectid": 84, "name": "Kidiet Olgo", "uid": 84, "link": "http:\/\/starwars.wikia.com\/wiki\/Kidiet_Olgo", "grid": "L-9", "x": 5.338, "y": 61.419, "sector": "", "region": "Core", "canon": 0, "zm": 2, "name0": "kidiet olgo", "name1": "", "name2": "", "lat": 8.247353527, "long": 0.7192871979 }, "geometry": { "type": "Point", "coordinates": [ 0.7192871979, 8.247353527 ] } },
{ "type": "Feature", "properties": { "cartodb_id": 85, "objectid": 85, "name": "Challon", "uid": 85, "link": "http:\/\/starwars.wikia.com\/wiki\/Challon", "grid": "L-9", "x": 28.395, "y": 51.687, "sector": "", "region": "Core", "canon": 0, "zm": 2, "name0": "challon", "name1": "", "name2": "", "lat": 6.947544866, "long": 3.826176314 }, "geometry": { "type": "Point", "coordinates": [ 3.826176314, 6.947544866 ] } },
{ "type": "Feature", "properties": { "cartodb_id": 86, "objectid": 86, "name": "Shawken", "uid": 86, "link": "http:\/\/starwars.wikia.com\/wiki\/Shawken", "grid": "L-9", "x": 28.654, "y": 44.953, "sector": "", "region": "Core", "canon": 0, "zm": 2, "name0": "shawken", "name1": "", "name2": "", "lat": 6.046069066, "long": 3.861072927 }, "geometry": { "type": "Point", "coordinates": [ 3.861072927, 6.046069066 ] } },
{ "type": "Feature", "properties": { "cartodb_id": 87, "objectid": 87, "name": "Velusia", "uid": 87, "link": "http:\/\/starwars.wikia.com\/wiki\/Velusia", "grid": "L-9", "x": 6.986, "y": 35.889, "sector": "", "region": "Core", "canon": 1, "zm": 2, "name0": "velusia", "name1": "", "name2": "", "lat": 4.830208137, "long": 0.9413896017 }, "geometry": { "type": "Point", "coordinates": [ 0.9413896017, 4.830208137 ] } },
{ "type": "Feature", "properties": { "cartodb_id": 88, "objectid": 88, "name": "Thorgeld", "uid": 88, "link": "http:\/\/starwars.wikia.com\/wiki\/Thorgeld", "grid": "L-9", "x": 12.235, "y": 29.369, "sector": "", "region": "Core", "canon": 0, "zm": 2, "name0": "thorgeld", "name1": "", "name2": "", "lat": 3.954242393, "long": 1.648692259 }, "geometry": { "type": "Point", "coordinates": [ 1.648692259, 3.954242393 ] } },
{ "type": "Feature", "properties": { "cartodb_id": 89, "objectid": 89, "name": "Thokos", "uid": 89, "link": "http:\/\/starwars.wikia.com\/wiki\/Thokos", "grid": "L-9", "x": 6.02, "y": 17.132, "sector": "", "region": "Core", "canon": 0, "zm": 2, "name0": "thokos", "name1": "", "name2": "", "lat": 2.307895814, "long": 0.8111735353 }, "geometry": { "type": "Point", "coordinates": [ 0.8111735353, 2.307895814 ] } },
{ "type": "Feature", "properties": { "cartodb_id": 90, "objectid": 90, "name": "Ralltiir", "uid": 90, "link": "http:\/\/starwars.wikia.com\/wiki\/Ralltiir", "grid": "L-9", "x": 74.426, "y": 43.836, "sector": "", "region": "Core", "canon": 1, "zm": 2, "name0": "ralltiir", "name1": "", "name2": "", "lat": 5.896313641, "long": 10.02872624 }, "geometry": { "type": "Point", "coordinates": [ 10.02872624, 5.896313641 ] } },
{ "type": "Feature", "properties": { "cartodb_id": 91, "objectid": 91, "name": "Rhinnal", "uid": 91, "link": "http:\/\/starwars.wikia.com\/wiki\/Rhinnal", "grid": "L-9", "x": 69.362, "y": 41.073, "sector": "", "region": "Core", "canon": 0, "zm": 2, "name0": "rhinnal", "name1": "", "name2": "", "lat": 5.525931407, "long": 9.346303576 }, "geometry": { "type": "Point", "coordinates": [ 9.346303576, 5.525931407 ] } },
{ "type": "Feature", "properties": { "cartodb_id": 92, "objectid": 92, "name": "Esseles", "uid": 92, "link": "http:\/\/starwars.wikia.com\/wiki\/Esseles", "grid": "L-9", "x": 64.988, "y": 38.311, "sector": "", "region": "Core", "canon": 0, "zm": 2, "name0": "esseles", "name1": "", "name2": "", "lat": 5.15531739, "long": 8.756938549 }, "geometry": { "type": "Point", "coordinates": [ 8.756938549, 5.15531739 ] } },
{ "type": "Feature", "properties": { "cartodb_id": 93, "objectid": 93, "name": "Brentaal", "uid": 93, "link": "http:\/\/starwars.wikia.com\/wiki\/Brentaal", "grid": "L-9", "x": 60.499, "y": 35.894, "sector": "", "region": "Core", "canon": 1, "zm": 1, "name0": "brentaal", "name1": "", "name2": "", "lat": 4.830852074, "long": 8.152063916 }, "geometry": { "type": "Point", "coordinates": [ 8.152063916, 4.830852074 ] } },
{ "type": "Feature", "properties": { "cartodb_id": 94, "objectid": 94, "name": "Chandrila", "uid": 94, "link": "http:\/\/starwars.wikia.com\/wiki\/Chandrila", "grid": "L-9", "x": 55.319, "y": 32.556, "sector": "", "region": "Core", "canon": 1, "zm": 2, "name0": "chandrila", "name1": "", "name2": "", "lat": 4.382527666, "long": 7.454131647 }, "geometry": { "type": "Point", "coordinates": [ 7.454131647, 4.382527666 ] } },
{ "type": "Feature", "properties": { "cartodb_id": 95, "objectid": 95, "name": "Corulag", "uid": 95, "link": "http:\/\/starwars.wikia.com\/wiki\/Corulag", "grid": "L-9", "x": 49.679, "y": 29.563, "sector": "", "region": "Core", "canon": 1, "zm": 2, "name0": "corulag", "name1": "", "name2": "", "lat": 3.980352135, "long": 6.694160953 }, "geometry": { "type": "Point", "coordinates": [ 6.694160953, 3.980352135 ] } },
{ "type": "Feature", "properties": { "cartodb_id": 96, "objectid": 96, "name": "Anaxes", "uid": 96, "link": "http:\/\/starwars.wikia.com\/wiki\/Anaxes", "grid": "L-9", "x": 41.047, "y": 24.959, "sector": "", "region": "Core", "canon": 1, "zm": 1, "name0": "anaxes", "name1": "", "name2": "", "lat": 3.361243726, "long": 5.530940505 }, "geometry": { "type": "Point", "coordinates": [ 5.530940505, 3.361243726 ] } },
{ "type": "Feature", "properties": { "cartodb_id": 97, "objectid": 97, "name": "Grizmallt", "uid": 97, "link": "http:\/\/starwars.wikia.com\/wiki\/Grizmallt", "grid": "L-9", "x": 28.386, "y": 17.708, "sector": "", "region": "Core", "canon": 1, "zm": 2, "name0": "grizmallt", "name1": "", "name2": "", "lat": 2.385378806, "long": 3.824883847 }, "geometry": { "type": "Point", "coordinates": [ 3.824883847, 2.385378806 ] } },
{ "type": "Feature", "properties": { "cartodb_id": 98, "objectid": 98, "name": "Alsakan", "uid": 98, "link": "http:\/\/starwars.wikia.com\/wiki\/Alsakan", "grid": "L-9", "x": 17.221, "y": 10.917, "sector": "", "region": "Core", "canon": 1, "zm": 1, "name0": "alsakan", "name1": "", "name2": "", "lat": 1.470839867, "long": 2.320452067 }, "geometry": { "type": "Point", "coordinates": [ 2.320452067, 1.470839867 ] } },
{ "type": "Feature", "properties": { "cartodb_id": 99, "objectid": 99, "name": "Tepasi", "uid": 99, "link": "http:\/\/starwars.wikia.com\/wiki\/Tepasi", "grid": "L-9", "x": 89.481, "y": 18.076, "sector": "", "region": "Core", "canon": 1, "zm": 1, "name0": "tepasi", "name1": "", "name2": "", "lat": 2.434986461, "long": 12.05736565 }, "geometry": { "type": "Point", "coordinates": [ 12.05736565, 2.434986461 ] } },
{ "type": "Feature", "properties": { "cartodb_id": 100, "objectid": 100, "name": "Skako", "uid": 100, "link": "http:\/\/starwars.wikia.com\/wiki\/Skako", "grid": "L-9", "x": 76.187, "y": 10.307, "sector": "", "region": "Core", "canon": 1, "zm": 1, "name0": "skako", "name1": "", "name2": "", "lat": 1.388685389, "long": 10.26600616 }, "geometry": { "type": "Point", "coordinates": [ 10.26600616, 1.388685389 ] } },
{ "type": "Feature", "properties": { "cartodb_id": 101, "objectid": 101, "name": "Basilisk", "uid": 101, "link": "http:\/\/starwars.wikia.com\/wiki\/Basilisk", "grid": "L-9", "x": 60.924, "y": 6.866, "sector": "", "region": "Core", "canon": 0, "zm": 2, "name0": "basilisk", "name1": "", "name2": "", "lat": 0.9251085761, "long": 8.209367781 }, "geometry": { "type": "Point", "coordinates": [ 8.209367781, 0.9251085761 ] } },
{ "type": "Feature", "properties": { "cartodb_id": 102, "objectid": 102, "name": "Spira", "uid": 102, "link": "http:\/\/starwars.wikia.com\/wiki\/Spira", "grid": "L-10", "x": 8.67, "y": -16.777, "sector": "", "region": "Core", "canon": 0, "zm": 2, "name0": "spira", "name1": "", "name2": "", "lat": -2.26007434, "long": 1.168298119 }, "geometry": { "type": "Point", "coordinates": [ 1.168298119, -2.26007434 ] } },
{ "type": "Feature", "properties": { "cartodb_id": 103, "objectid": 103, "name": "Yulant", "uid": 103, "link": "http:\/\/starwars.wikia.com\/wiki\/Yulant", "grid": "L-10", "x": 34.421, "y": -16.249, "sector": "", "region": "Core", "canon": 0, "zm": 2, "name0": "yulant", "name1": "", "name2": "", "lat": -2.18902005, "long": 4.638132909 }, "geometry": { "type": "Point", "coordinates": [ 4.638132909, -2.18902005 ] } },
{ "type": "Feature", "properties": { "cartodb_id": 104, "objectid": 104, "name": "Aargau", "uid": 104, "link": "http:\/\/starwars.wikia.com\/wiki\/Aargau", "grid": "L-10", "x": 40.205, "y": -19.875, "sector": "", "region": "Core", "canon": 1, "zm": 1, "name0": "aargau", "name1": "", "name2": "", "lat": -2.677130721, "long": 5.417490609 }, "geometry": { "type": "Point", "coordinates": [ 5.417490609, -2.677130721 ] } },
{ "type": "Feature", "properties": { "cartodb_id": 105, "objectid": 105, "name": "Broest", "uid": 105, "link": "http:\/\/starwars.wikia.com\/wiki\/Broest", "grid": "L-10", "x": 65.326, "y": -24.45, "sector": "", "region": "Core", "canon": 1, "zm": 2, "name0": "broest", "name1": "", "name2": "", "lat": -3.292798126, "long": 8.802462114000001 }, "geometry": { "type": "Point", "coordinates": [ 8.802462114, -3.292798126 ] } },
{ "type": "Feature", "properties": { "cartodb_id": 106, "objectid": 106, "name": "Ixtlar", "uid": 106, "link": "http:\/\/starwars.wikia.com\/wiki\/Ixtlar", "grid": "L-10", "x": 37.098, "y": -4.098, "sector": "", "region": "Core", "canon": 0, "zm": 1, "name0": "ixtlar", "name1": "", "name2": "", "lat": -0.5521326496, "long": 4.998879343 }, "geometry": { "type": "Point", "coordinates": [ 4.998879343, -0.5521326496 ] } },
{ "type": "Feature", "properties": { "cartodb_id": 107, "objectid": 107, "name": "Vultar", "uid": 107, "link": "http:\/\/starwars.wikia.com\/wiki\/Vultar", "grid": "L-10", "x": 64.809, "y": -5.306, "sector": "", "region": "Core", "canon": 0, "zm": 2, "name0": "vultar", "name1": "", "name2": "", "lat": -0.7149735016, "long": 8.732816983 }, "geometry": { "type": "Point", "coordinates": [ 8.732816983, -0.7149735016 ] } },
{ "type": "Feature", "properties": { "cartodb_id": 108, "objectid": 108, "name": "Wukkar", "uid": 108, "link": "http:\/\/starwars.wikia.com\/wiki\/Wukkar", "grid": "L-10", "x": 56.694, "y": -12.471, "sector": "", "region": "Core", "canon": 0, "zm": 2, "name0": "wukkar", "name1": "", "name2": "", "lat": -1.680224152, "long": 7.639389761 }, "geometry": { "type": "Point", "coordinates": [ 7.639389761, -1.680224152 ] } },
{ "type": "Feature", "properties": { "cartodb_id": 109, "objectid": 109, "name": "Kailor V", "uid": 109, "link": "https:\/\/starwars.fandom.com\/wiki\/Kailor_V", "grid": "L-10", "x": 69.125, "y": -20.068, "sector": "", "region": "Core", "canon": 0, "zm": 2, "name0": "kailor", "name1": "kailor v", "name2": "kailor 5", "lat": -2.703095728, "long": 9.314427207 }, "geometry": { "type": "Point", "coordinates": [ 9.314427207, -2.703095728 ] } },
{ "type": "Feature", "properties": { "cartodb_id": 110, "objectid": 110, "name": "Palawa", "uid": 110, "link": "http:\/\/starwars.wikia.com\/wiki\/Palawa", "grid": "L-10", "x": 92.548, "y": -15.205, "sector": "", "region": "Core", "canon": 0, "zm": 2, "name0": "palawa", "name1": "", "name2": "", "lat": -2.048381682, "long": 12.47063202 }, "geometry": { "type": "Point", "coordinates": [ 12.47063202, -2.048381682 ] } },
{ "type": "Feature", "properties": { "cartodb_id": 111, "objectid": 111, "name": "Xorth", "uid": 111, "link": "http:\/\/starwars.wikia.com\/wiki\/Xorth", "grid": "L-10", "x": 82.506, "y": -28.363, "sector": "", "region": "Core", "canon": 0, "zm": 2, "name0": "xorth", "name1": "", "name2": "", "lat": -3.819030519, "long": 11.11745245 }, "geometry": { "type": "Point", "coordinates": [ 11.11745245, -3.819030519 ] } },
{ "type": "Feature", "properties": { "cartodb_id": 112, "objectid": 112, "name": "Gama", "uid": 112, "link": "http:\/\/starwars.wikia.com\/wiki\/Gama", "grid": "L-12", "x": 83.707, "y": -246.323, "sector": "", "region": "Core", "canon": 0, "zm": 2, "name0": "gama", "name1": "", "name2": "", "lat": -31.47696587, "long": 11.27928498 }, "geometry": { "type": "Point", "coordinates": [ 11.27928498, -31.47696587 ] } },
{ "type": "Feature", "properties": { "cartodb_id": 113, "objectid": 113, "name": "Balosar", "uid": 113, "link": "http:\/\/starwars.wikia.com\/wiki\/Balosar", "grid": "L-12", "x": 67.596, "y": -251.748, "sector": "", "region": "Core", "canon": 1, "zm": 1, "name0": "balosar", "name1": "", "name2": "", "lat": -32.09831515, "long": 9.108436383000001 }, "geometry": { "type": "Point", "coordinates": [ 9.108436383, -32.09831515 ] } },
{ "type": "Feature", "properties": { "cartodb_id": 114, "objectid": 114, "name": "Lansono", "uid": 114, "link": "http:\/\/starwars.wikia.com\/wiki\/Lansono", "grid": "L-12", "x": 97.176, "y": -277.948, "sector": "", "region": "Core", "canon": 0, "zm": 2, "name0": "lansono", "name1": "", "name2": "", "lat": -35.03931402, "long": 13.09415179 }, "geometry": { "type": "Point", "coordinates": [ 13.09415179, -35.03931402 ] } },
{ "type": "Feature", "properties": { "cartodb_id": 115, "objectid": 115, "name": "Lujo", "uid": 115, "link": "http:\/\/starwars.wikia.com\/wiki\/Lujo", "grid": "L-12", "x": 49.337, "y": -264.139, "sector": "", "region": "Core", "canon": 0, "zm": 2, "name0": "lujo", "name1": "", "name2": "", "lat": -33.50171994, "long": 6.648060546 }, "geometry": { "type": "Point", "coordinates": [ 6.648060546, -33.50171994 ] } },
{ "type": "Feature", "properties": { "cartodb_id": 116, "objectid": 116, "name": "Shulxi", "uid": 116, "link": "http:\/\/starwars.wikia.com\/wiki\/Shulxi", "grid": "L-12", "x": 61.79, "y": -270.427, "sector": "", "region": "Core", "canon": 0, "zm": 2, "name0": "shulxi", "name1": "", "name2": "", "lat": -34.20536018, "long": 8.326037905 }, "geometry": { "type": "Point", "coordinates": [ 8.326037905, -34.20536018 ] } },
{ "type": "Feature", "properties": { "cartodb_id": 117, "objectid": 117, "name": "Azbrian", "uid": 117, "link": "http:\/\/starwars.wikia.com\/wiki\/Azbrian", "grid": "L-12", "x": 61.667, "y": -284.606, "sector": "", "region": "Core", "canon": 0, "zm": 2, "name0": "azbrian", "name1": "", "name2": "", "lat": -35.77054017, "long": 8.309424268000001 }, "geometry": { "type": "Point", "coordinates": [ 8.309424268, -35.77054017 ] } },
{ "type": "Feature", "properties": { "cartodb_id": 118, "objectid": 118, "name": "Thomork", "uid": 118, "link": "http:\/\/starwars.wikia.com\/wiki\/Thomork", "grid": "L-12", "x": 19.194, "y": -266.62, "sector": "", "region": "Core", "canon": 0, "zm": 2, "name0": "thomork", "name1": "", "name2": "", "lat": -33.77997016, "long": 2.586310671 }, "geometry": { "type": "Point", "coordinates": [ 2.586310671, -33.77997016 ] } },
{ "type": "Feature", "properties": { "cartodb_id": 119, "objectid": 119, "name": "Frego", "uid": 119, "link": "http:\/\/starwars.wikia.com\/wiki\/Frego", "grid": "L-13", "x": 29.363, "y": -306.429, "sector": "", "region": "Core", "canon": 0, "zm": 2, "name0": "frego", "name1": "", "name2": "", "lat": -38.12035166, "long": 3.956651317 }, "geometry": { "type": "Point", "coordinates": [ 3.956651317, -38.12035166 ] } },
{ "type": "Feature", "properties": { "cartodb_id": 120, "objectid": 120, "name": "Iphigin", "uid": 120, "link": "http:\/\/starwars.wikia.com\/wiki\/Iphigin", "grid": "L-13", "x": 44.899, "y": -327.883, "sector": "", "region": "Core", "canon": 0, "zm": 2, "name0": "iphigin", "name1": "", "name2": "", "lat": -40.35894292, "long": 6.049969606 }, "geometry": { "type": "Point", "coordinates": [ 6.049969606, -40.35894292 ] } },
{ "type": "Feature", "properties": { "cartodb_id": 121, "objectid": 121, "name": "Andara", "uid": 121, "link": "http:\/\/starwars.wikia.com\/wiki\/Andara", "grid": "L-13", "x": 97.669, "y": -315.8, "sector": "", "region": "Core", "canon": 0, "zm": 1, "name0": "andara", "name1": "", "name2": "", "lat": -39.10691269, "long": 13.16060634 }, "geometry": { "type": "Point", "coordinates": [ 13.16060634, -39.10691269 ] } },
{ "type": "Feature", "properties": { "cartodb_id": 122, "objectid": 122, "name": "Eamus", "uid": 122, "link": "http:\/\/starwars.wikia.com\/wiki\/Eamus", "grid": "L-13", "x": 5.307, "y": -304.268, "sector": "", "region": "Core", "canon": 0, "zm": 2, "name0": "eamus", "name1": "", "name2": "", "lat": -37.89091025, "long": 0.7150699849 }, "geometry": { "type": "Point", "coordinates": [ 0.7150699849, -37.89091025 ] } },
{ "type": "Feature", "properties": { "cartodb_id": 123, "objectid": 123, "name": "Plexis", "uid": 123, "link": "http:\/\/starwars.wikia.com\/wiki\/Plexis", "grid": "L-13", "x": 8.759, "y": -311.173, "sector": "", "region": "Core", "canon": 1, "zm": 2, "name0": "plexis", "name1": "", "name2": "", "lat": -38.62146728, "long": 1.180251827 }, "geometry": { "type": "Point", "coordinates": [ 1.180251827, -38.62146728 ] } },
{ "type": "Feature", "properties": { "cartodb_id": 124, "objectid": 124, "name": "Diamal", "uid": 124, "link": "http:\/\/starwars.wikia.com\/wiki\/Diamal", "grid": "L-13", "x": 10.115, "y": -342.49, "sector": "", "region": "Core", "canon": 0, "zm": 2, "name0": "diamal", "name1": "", "name2": "", "lat": -41.84204098, "long": 1.363001837 }, "geometry": { "type": "Point", "coordinates": [ 1.363001837, -41.84204098 ] } },
{ "type": "Feature", "properties": { "cartodb_id": 125, "objectid": 125, "name": "Corann", "uid": 125, "link": "http:\/\/starwars.wikia.com\/wiki\/Corann", "grid": "M-9", "x": 101.371, "y": 35.211, "sector": "", "region": "Core", "canon": 0, "zm": 2, "name0": "corann", "name1": "", "name2": "", "lat": 4.739151554, "long": 13.65940647 }, "geometry": { "type": "Point", "coordinates": [ 13.65940647, 4.739151554 ] } },
{ "type": "Feature", "properties": { "cartodb_id": 126, "objectid": 126, "name": "Korfo", "uid": 126, "link": "http:\/\/starwars.wikia.com\/wiki\/Korfo", "grid": "M-9", "x": 106.703, "y": 8.252, "sector": "", "region": "Core", "canon": 0, "zm": 2, "name0": "korfo", "name1": "", "name2": "", "lat": 1.111840493, "long": 14.37799044 }, "geometry": { "type": "Point", "coordinates": [ 14.37799044, 1.111840493 ] } },
{ "type": "Feature", "properties": { "cartodb_id": 127, "objectid": 127, "name": "Caamas", "uid": 127, "link": "http:\/\/starwars.wikia.com\/wiki\/Caamas", "grid": "M-9", "x": 113.696, "y": 7.086, "sector": "", "region": "Core", "canon": 0, "zm": 1, "name0": "caamas", "name1": "", "name2": "", "lat": 0.9548313204, "long": 15.32019901 }, "geometry": { "type": "Point", "coordinates": [ 15.32019901, 0.9548313204 ] } },
{ "type": "Feature", "properties": { "cartodb_id": 128, "objectid": 128, "name": "Aldraig", "uid": 128, "link": "http:\/\/starwars.wikia.com\/wiki\/Aldraig", "grid": "M-10", "x": 104.807, "y": -19.867, "sector": "", "region": "Core", "canon": 0, "zm": 2, "name0": "aldraig", "name1": "", "name2": "", "lat": -2.675983816, "long": 14.12240506 }, "geometry": { "type": "Point", "coordinates": [ 14.12240506, -2.675983816 ] } },
{ "type": "Feature", "properties": { "cartodb_id": 129, "objectid": 129, "name": "Alderaan", "uid": 129, "link": "http:\/\/starwars.wikia.com\/wiki\/Alderaan", "grid": "M-10", "x": 129.496, "y": -5.968, "sector": "", "region": "Core", "canon": 1, "zm": 0, "name0": "alderaan", "name1": "", "name2": "", "lat": -0.8041458909, "long": 17.44921554 }, "geometry": { "type": "Point", "coordinates": [ 17.44921554, -0.8041458909 ] } },
{ "type": "Feature", "properties": { "cartodb_id": 130, "objectid": 130, "name": "Vuma", "uid": 130, "link": "http:\/\/starwars.wikia.com\/wiki\/Vuma", "grid": "M-10", "x": 112.651, "y": -59.194, "sector": "", "region": "Core", "canon": 0, "zm": 2, "name0": "vuma", "name1": "", "name2": "", "lat": -7.950648564, "long": 15.17942779 }, "geometry": { "type": "Point", "coordinates": [ 15.17942779, -7.950648564 ] } },
{ "type": "Feature", "properties": { "cartodb_id": 131, "objectid": 131, "name": "Ator", "uid": 131, "link": "http:\/\/starwars.wikia.com\/wiki\/Ator", "grid": "M-10", "x": 107.472, "y": -73.697, "sector": "", "region": "Core", "canon": 1, "zm": 2, "name0": "ator", "name1": "", "name2": "", "lat": -9.881150171, "long": 14.48149552 }, "geometry": { "type": "Point", "coordinates": [ 14.48149552, -9.881150171 ] } },
{ "type": "Feature", "properties": { "cartodb_id": 132, "objectid": 132, "name": "Leria Kerlsil", "uid": 132, "link": "http:\/\/starwars.wikia.com\/wiki\/Leria_Kerlsil", "grid": "M-10", "x": 125.312, "y": -83.136, "sector": "", "region": "Core", "canon": 0, "zm": 2, "name0": "leria kerlsil", "name1": "", "name2": "", "lat": -11.13158936, "long": 16.88548445 }, "geometry": { "type": "Point", "coordinates": [ 16.88548445, -11.13158936 ] } },
{ "type": "Feature", "properties": { "cartodb_id": 133, "objectid": 133, "name": "Tyed Kant", "uid": 133, "link": "http:\/\/starwars.wikia.com\/wiki\/Tyed_Kant", "grid": "M-10", "x": 145.455, "y": -23.628, "sector": "", "region": "Core", "canon": 0, "zm": 2, "name0": "tyed kant", "name1": "", "name2": "", "lat": -3.182182509, "long": 19.5996655 }, "geometry": { "type": "Point", "coordinates": [ 19.5996655, -3.182182509 ] } },
{ "type": "Feature", "properties": { "cartodb_id": 134, "objectid": 134, "name": "Demophon", "uid": 134, "link": "http:\/\/starwars.wikia.com\/wiki\/Demophon", "grid": "M-10", "x": 119.327, "y": -33.181, "sector": "", "region": "Core", "canon": 0, "zm": 2, "name0": "demophon", "name1": "", "name2": "", "lat": -4.466586082, "long": 16.07898494 }, "geometry": { "type": "Point", "coordinates": [ 16.07898494, -4.466586082 ] } },
{ "type": "Feature", "properties": { "cartodb_id": 135, "objectid": 135, "name": "Glithnos", "uid": 135, "link": "http:\/\/starwars.wikia.com\/wiki\/Glithnos", "grid": "M-10", "x": 126.463, "y": -41.584, "sector": "", "region": "Core", "canon": 0, "zm": 2, "name0": "glithnos", "name1": "", "name2": "", "lat": -5.594407777, "long": 17.04058051 }, "geometry": { "type": "Point", "coordinates": [ 17.04058051, -5.594407777 ] } },
{ "type": "Feature", "properties": { "cartodb_id": 136, "objectid": 136, "name": "Fedalle", "uid": 136, "link": "http:\/\/starwars.wikia.com\/wiki\/Fedalle", "grid": "M-10", "x": 139.815, "y": -54.475, "sector": "", "region": "Core", "canon": 0, "zm": 1, "name0": "fedalle", "name1": "", "name2": "", "lat": -7.320396257, "long": 18.8396948 }, "geometry": { "type": "Point", "coordinates": [ 18.8396948, -7.320396257 ] } },
{ "type": "Feature", "properties": { "cartodb_id": 137, "objectid": 137, "name": "Raxxa", "uid": 137, "link": "http:\/\/starwars.wikia.com\/wiki\/Raxxa", "grid": "M-10", "x": 166.864, "y": -55.511, "sector": "", "region": "Core", "canon": 0, "zm": 2, "name0": "raxxa", "name1": "", "name2": "", "lat": -7.458823341, "long": 22.48445221 }, "geometry": { "type": "Point", "coordinates": [ 22.48445221, -7.458823341 ] } },
{ "type": "Feature", "properties": { "cartodb_id": 138, "objectid": 138, "name": "Kuat", "uid": 138, "link": "http:\/\/starwars.wikia.com\/wiki\/Kuat", "grid": "M-10", "x": 186.813, "y": -59.958, "sector": "", "region": "Core", "canon": 1, "zm": 0, "name0": "kuat", "name1": "", "name2": "", "lat": -8.052519316, "long": 25.17252138 }, "geometry": { "type": "Point", "coordinates": [ 25.17252138, -8.052519316 ] } },
{ "type": "Feature", "properties": { "cartodb_id": 139, "objectid": 139, "name": "Talravin", "uid": 139, "link": "http:\/\/starwars.wikia.com\/wiki\/Talravin", "grid": "M-10", "x": 152.034, "y": -74.474, "sector": "", "region": "Core", "canon": 0, "zm": 2, "name0": "talravin", "name1": "", "name2": "", "lat": -9.984284061, "long": 20.4861207 }, "geometry": { "type": "Point", "coordinates": [ 20.4861207, -9.984284061 ] } },
{ "type": "Feature", "properties": { "cartodb_id": 140, "objectid": 140, "name": "Pria", "uid": 140, "link": "http:\/\/starwars.wikia.com\/wiki\/Pria", "grid": "M-10", "x": 173.27, "y": -83.711, "sector": "", "region": "Core", "canon": 0, "zm": 2, "name0": "pria", "name1": "", "name2": "", "lat": -11.20768167, "long": 23.34764301 }, "geometry": { "type": "Point", "coordinates": [ 23.34764301, -11.20768167 ] } },
{ "type": "Feature", "properties": { "cartodb_id": 141, "objectid": 141, "name": "Ruul", "uid": 141, "link": "http:\/\/starwars.wikia.com\/wiki\/Ruul_(planet)", "grid": "M-10", "x": 143.574, "y": -97.005, "sector": "", "region": "Core", "canon": 0, "zm": 2, "name0": "ruul", "name1": "", "name2": "", "lat": -12.95927669, "long": 19.34616467 }, "geometry": { "type": "Point", "coordinates": [ 19.34616467, -12.95927669 ] } },
{ "type": "Feature", "properties": { "cartodb_id": 142, "objectid": 142, "name": "Sarapin", "uid": 142, "link": "http:\/\/starwars.wikia.com\/wiki\/Sarapin", "grid": "M-10", "x": 160.062, "y": -90.445, "sector": "", "region": "Core", "canon": 0, "zm": 1, "name0": "sarapin", "name1": "", "name2": "", "lat": -12.09628645, "long": 21.56791572 }, "geometry": { "type": "Point", "coordinates": [ 21.56791572, -12.09628645 ] } },
{ "type": "Feature", "properties": { "cartodb_id": 143, "objectid": 143, "name": "Humbarine", "uid": 143, "link": "http:\/\/starwars.wikia.com\/wiki\/Humbarine", "grid": "M-10", "x": 188.233, "y": -99.94, "sector": "", "region": "Core", "canon": 0, "zm": 1, "name0": "humbarine", "name1": "", "name2": "", "lat": -13.34439721, "long": 25.36389179 }, "geometry": { "type": "Point", "coordinates": [ 25.36389179, -13.34439721 ] } },
{ "type": "Feature", "properties": { "cartodb_id": 144, "objectid": 144, "name": "Trellen", "uid": 144, "link": "http:\/\/starwars.wikia.com\/wiki\/Trellen", "grid": "M-11", "x": 164.292, "y": -100.458, "sector": "", "region": "Core", "canon": 0, "zm": 2, "name0": "trellen", "name1": "", "name2": "", "lat": -13.41229648, "long": 22.13789374 }, "geometry": { "type": "Point", "coordinates": [ 22.13789374, -13.41229648 ] } },
{ "type": "Feature", "properties": { "cartodb_id": 145, "objectid": 145, "name": "Mawan", "uid": 145, "link": "http:\/\/starwars.wikia.com\/wiki\/Mawan", "grid": "M-11", "x": 168.781, "y": -111.163, "sector": "", "region": "Core", "canon": 0, "zm": 2, "name0": "mawan", "name1": "", "name2": "", "lat": -14.81112245, "long": 22.74276838 }, "geometry": { "type": "Point", "coordinates": [ 22.74276838, -14.81112245 ] } },
{ "type": "Feature", "properties": { "cartodb_id": 146, "objectid": 146, "name": "Seyugi", "uid": 146, "link": "http:\/\/starwars.wikia.com\/wiki\/Seyugi", "grid": "M-11", "x": 187.312, "y": -120.544, "sector": "", "region": "Core", "canon": 0, "zm": 2, "name0": "seyugi", "name1": "", "name2": "", "lat": -16.02962486, "long": 25.23981494 }, "geometry": { "type": "Point", "coordinates": [ 25.23981494, -16.02962486 ] } },
{ "type": "Feature", "properties": { "cartodb_id": 147, "objectid": 147, "name": "Recopia", "uid": 147, "link": "http:\/\/starwars.wikia.com\/wiki\/Recopia", "grid": "M-11", "x": 152.782, "y": -123.766, "sector": "", "region": "Core", "canon": 0, "zm": 2, "name0": "recopia", "name1": "", "name2": "", "lat": -16.44656888, "long": 20.58693314 }, "geometry": { "type": "Point", "coordinates": [ 20.58693314, -16.44656888 ] } },
{ "type": "Feature", "properties": { "cartodb_id": 148, "objectid": 148, "name": "Loretto", "uid": 148, "link": "http:\/\/starwars.wikia.com\/wiki\/Loretto", "grid": "M-11", "x": 176.838, "y": -132.629, "sector": "", "region": "Core", "canon": 0, "zm": 2, "name0": "loretto", "name1": "", "name2": "", "lat": -17.5884966, "long": 23.82844079 }, "geometry": { "type": "Point", "coordinates": [ 23.82844079, -17.5884966 ] } },
{ "type": "Feature", "properties": { "cartodb_id": 149, "objectid": 149, "name": "Rendili", "uid": 149, "link": "http:\/\/starwars.wikia.com\/wiki\/Rendili", "grid": "M-11", "x": 163.716, "y": -140.801, "sector": "", "region": "Core", "canon": 0, "zm": 1, "name0": "rendili", "name1": "", "name2": "", "lat": -18.63509931, "long": 22.06034571 }, "geometry": { "type": "Point", "coordinates": [ 22.06034571, -18.63509931 ] } },
{ "type": "Feature", "properties": { "cartodb_id": 150, "objectid": 150, "name": "Perma", "uid": 150, "link": "http:\/\/starwars.wikia.com\/wiki\/Perma", "grid": "M-11", "x": 134.711, "y": -106.731, "sector": "", "region": "Core", "canon": 0, "zm": 2, "name0": "perma", "name1": "", "name2": "", "lat": -14.2330828, "long": 18.15192501 }, "geometry": { "type": "Point", "coordinates": [ 18.15192501, -14.2330828 ] } },
{ "type": "Feature", "properties": { "cartodb_id": 151, "objectid": 151, "name": "Lolnar", "uid": 151, "link": "http:\/\/starwars.wikia.com\/wiki\/Lolnar", "grid": "M-11", "x": 138.394, "y": -117.551, "sector": "", "region": "Core", "canon": 0, "zm": 2, "name0": "lolnar", "name1": "", "name2": "", "lat": -15.64167994, "long": 18.6482324 }, "geometry": { "type": "Point", "coordinates": [ 18.6482324, -15.64167994 ] } },
{ "type": "Feature", "properties": { "cartodb_id": 152, "objectid": 152, "name": "Columus", "uid": 152, "link": "http:\/\/starwars.wikia.com\/wiki\/Columus", "grid": "M-11", "x": 133.33, "y": -129.521, "sector": "", "region": "Core", "canon": 0, "zm": 1, "name0": "columus", "name1": "", "name2": "", "lat": -17.18887578, "long": 17.96580973 }, "geometry": { "type": "Point", "coordinates": [ 17.96580973, -17.18887578 ] } },
{ "type": "Feature", "properties": { "cartodb_id": 153, "objectid": 153, "name": "Lettow", "uid": 153, "link": "http:\/\/starwars.wikia.com\/wiki\/Lettow", "grid": "M-11", "x": 126.726, "y": -146.533, "sector": "", "region": "Core", "canon": 0, "zm": 2, "name0": "lettow", "name1": "", "name2": "", "lat": -19.3653445, "long": 17.07594609 }, "geometry": { "type": "Point", "coordinates": [ 17.07594609, -19.3653445 ] } },
{ "type": "Feature", "properties": { "cartodb_id": 154, "objectid": 154, "name": "Rehemsa", "uid": 154, "link": "http:\/\/starwars.wikia.com\/wiki\/Rehemsa", "grid": "M-11", "x": 148.595, "y": -151.022, "sector": "", "region": "Core", "canon": 0, "zm": 2, "name0": "rehemsa", "name1": "", "name2": "", "lat": -19.93499033, "long": 20.02277123 }, "geometry": { "type": "Point", "coordinates": [ 20.02277123, -19.93499033 ] } },
{ "type": "Feature", "properties": { "cartodb_id": 155, "objectid": 155, "name": "Sedratis", "uid": 155, "link": "http:\/\/starwars.wikia.com\/wiki\/Sedratis", "grid": "M-11", "x": 152.163, "y": -162.187, "sector": "", "region": "Core", "canon": 1, "zm": 2, "name0": "sedratis", "name1": "", "name2": "", "lat": -21.34282282, "long": 20.50356901 }, "geometry": { "type": "Point", "coordinates": [ 20.50356901, -21.34282282 ] } },
{ "type": "Feature", "properties": { "cartodb_id": 156, "objectid": 156, "name": "Baraboo", "uid": 156, "link": "http:\/\/starwars.wikia.com\/wiki\/Baraboo", "grid": "M-11", "x": 181.111, "y": -146.907, "sector": "", "region": "Core", "canon": 0, "zm": 2, "name0": "baraboo", "name1": "", "name2": "", "lat": -19.41289196, "long": 24.40423492 }, "geometry": { "type": "Point", "coordinates": [ 24.40423492, -19.41289196 ] } },
{ "type": "Feature", "properties": { "cartodb_id": 157, "objectid": 157, "name": "Bellassa", "uid": 157, "link": "http:\/\/starwars.wikia.com\/wiki\/Bellassa", "grid": "M-11", "x": 183.068, "y": -152.777, "sector": "", "region": "Core", "canon": 0, "zm": 1, "name0": "bellassa", "name1": "", "name2": "", "lat": -20.15718251, "long": 24.66789822 }, "geometry": { "type": "Point", "coordinates": [ 24.66789822, -20.15718251 ] } },
{ "type": "Feature", "properties": { "cartodb_id": 158, "objectid": 158, "name": "Jaciprus", "uid": 158, "link": "http:\/\/starwars.wikia.com\/wiki\/Jaciprus", "grid": "M-11", "x": 186.866, "y": -166.244, "sector": "", "region": "Core", "canon": 0, "zm": 2, "name0": "jaciprus", "name1": "", "name2": "", "lat": -21.85115267, "long": 25.17971522 }, "geometry": { "type": "Point", "coordinates": [ 25.17971522, -21.85115267 ] } },
{ "type": "Feature", "properties": { "cartodb_id": 159, "objectid": 159, "name": "Voktunma", "uid": 159, "link": "http:\/\/starwars.wikia.com\/wiki\/Voktunma", "grid": "M-11", "x": 188.708, "y": -172.345, "sector": "", "region": "Core", "canon": 0, "zm": 2, "name0": "voktunma", "name1": "", "name2": "", "lat": -22.61204785, "long": 25.42786891 }, "geometry": { "type": "Point", "coordinates": [ 25.42786891, -22.61204785 ] } },
{ "type": "Feature", "properties": { "cartodb_id": 160, "objectid": 160, "name": "Samaria", "uid": 160, "link": "http:\/\/starwars.wikia.com\/wiki\/Samaria", "grid": "M-11", "x": 169.716, "y": -169.237, "sector": "", "region": "Core", "canon": 0, "zm": 2, "name0": "samaria", "name1": "", "name2": "", "lat": -22.22493806, "long": 22.86878392 }, "geometry": { "type": "Point", "coordinates": [ 22.86878392, -22.22493806 ] } },
{ "type": "Feature", "properties": { "cartodb_id": 161, "objectid": 161, "name": "Rydonni Prime", "uid": 161, "link": "http:\/\/starwars.wikia.com\/wiki\/Rydonni_Prime", "grid": "M-11", "x": 155.098, "y": -174.301, "sector": "", "region": "Core", "canon": 0, "zm": 2, "name0": "rydonni prime", "name1": "", "name2": "", "lat": -22.85522727, "long": 20.89906396 }, "geometry": { "type": "Point", "coordinates": [ 20.89906396, -22.85522727 ] } },
{ "type": "Feature", "properties": { "cartodb_id": 162, "objectid": 162, "name": "Goorla", "uid": 162, "link": "http:\/\/starwars.wikia.com\/wiki\/Goorla", "grid": "M-11", "x": 154.523, "y": -180.287, "sector": "", "region": "Core", "canon": 0, "zm": 2, "name0": "goorla", "name1": "", "name2": "", "lat": -23.5963593, "long": 20.82151593 }, "geometry": { "type": "Point", "coordinates": [ 20.82151593, -23.5963593 ] } },
{ "type": "Feature", "properties": { "cartodb_id": 163, "objectid": 163, "name": "Sacorria", "uid": 163, "link": "http:\/\/starwars.wikia.com\/wiki\/Sacorria", "grid": "M-11", "x": 151.875, "y": -184.545, "sector": "", "region": "Core", "canon": 0, "zm": 2, "name0": "sacorria", "name1": "", "name2": "", "lat": -24.12117351, "long": 20.464795 }, "geometry": { "type": "Point", "coordinates": [ 20.464795, -24.12117351 ] } },
{ "type": "Feature", "properties": { "cartodb_id": 164, "objectid": 164, "name": "Corellia", "uid": 164, "link": "http:\/\/starwars.wikia.com\/wiki\/Corellia", "grid": "M-11", "x": 157.553, "y": -186.038, "sector": "", "region": "Core", "canon": 1, "zm": 0, "name0": "corellia", "name1": "", "name2": "", "lat": -24.30461324, "long": 21.22983049 }, "geometry": { "type": "Point", "coordinates": [ 21.22983049, -24.30461324 ] } },
{ "type": "Feature", "properties": { "cartodb_id": 165, "objectid": 165, "name": "Duro", "uid": 165, "link": "http:\/\/starwars.wikia.com\/wiki\/Duro", "grid": "M-11", "x": 157.102, "y": -186.797, "sector": "", "region": "Core", "canon": 1, "zm": 2, "name0": "duro", "name1": "", "name2": "", "lat": -24.39782093, "long": 21.16904142 }, "geometry": { "type": "Point", "coordinates": [ 21.16904142, -24.39782093 ] } },
{ "type": "Feature", "properties": { "cartodb_id": 166, "objectid": 166, "name": "Nubia", "uid": 166, "link": "http:\/\/starwars.wikia.com\/wiki\/Nubia", "grid": "M-11", "x": 157.609, "y": -186.709, "sector": "", "region": "Core", "canon": 1, "zm": 3, "name0": "nubia", "name1": "", "name2": "", "lat": -24.38699773, "long": 21.23737434 }, "geometry": { "type": "Point", "coordinates": [ 21.23737434, -24.38699773 ] } },
{ "type": "Feature", "properties": { "cartodb_id": 167, "objectid": 167, "name": "Karvoss", "uid": 167, "link": "http:\/\/starwars.wikia.com\/wiki\/Karvoss", "grid": "M-12", "x": 117.243, "y": -205.225, "sector": "", "region": "Core", "canon": 0, "zm": 2, "name0": "karvoss", "name1": "", "name2": "", "lat": -26.63846205, "long": 15.7981943 }, "geometry": { "type": "Point", "coordinates": [ 15.7981943, -26.63846205 ] } },
{ "type": "Feature", "properties": { "cartodb_id": 168, "objectid": 168, "name": "Hemei", "uid": 168, "link": "http:\/\/starwars.wikia.com\/wiki\/Hemei", "grid": "M-12", "x": 103.763, "y": -217.226, "sector": "", "region": "Core", "canon": 0, "zm": 2, "name0": "hemei", "name1": "", "name2": "", "lat": -28.07461972, "long": 13.98176997 }, "geometry": { "type": "Point", "coordinates": [ 13.98176997, -28.07461972 ] } },
{ "type": "Feature", "properties": { "cartodb_id": 169, "objectid": 169, "name": "Chasin", "uid": 169, "link": "http:\/\/starwars.wikia.com\/wiki\/Chasin", "grid": "M-12", "x": 158.341, "y": -249.447, "sector": "", "region": "Core", "canon": 0, "zm": 2, "name0": "chasin", "name1": "", "name2": "", "lat": -31.83522258, "long": 21.33607338 }, "geometry": { "type": "Point", "coordinates": [ 21.33607338, -31.83522258 ] } },
{ "type": "Feature", "properties": { "cartodb_id": 170, "objectid": 170, "name": "Chamm", "uid": 170, "link": "http:\/\/starwars.wikia.com\/wiki\/Chamm", "grid": "M-12", "x": 105.407, "y": -250.433, "sector": "", "region": "Core", "canon": 0, "zm": 2, "name0": "chamm", "name1": "", "name2": "", "lat": -31.94806885, "long": 14.20328513 }, "geometry": { "type": "Point", "coordinates": [ 14.20328513, -31.94806885 ] } },
{ "type": "Feature", "properties": { "cartodb_id": 171, "objectid": 171, "name": "Shumogi", "uid": 171, "link": "http:\/\/starwars.wikia.com\/wiki\/Shumogi", "grid": "M-12", "x": 114.284, "y": -235.473, "sector": "", "region": "Core", "canon": 0, "zm": 2, "name0": "shumogi", "name1": "", "name2": "", "lat": -30.22185549, "long": 15.39946701 }, "geometry": { "type": "Point", "coordinates": [ 15.39946701, -30.22185549 ] } },
{ "type": "Feature", "properties": { "cartodb_id": 172, "objectid": 172, "name": "Tinnel", "uid": 172, "link": "http:\/\/starwars.wikia.com\/wiki\/Tinnel", "grid": "M-12", "x": 170.506, "y": -213.445, "sector": "", "region": "Core", "canon": 1, "zm": 1, "name0": "tinnel", "name1": "", "name2": "", "lat": -27.62414587, "long": 22.97528558 }, "geometry": { "type": "Point", "coordinates": [ 22.97528558, -27.62414587 ] } },
{ "type": "Feature", "properties": { "cartodb_id": 173, "objectid": 173, "name": "Condular", "uid": 173, "link": "http:\/\/starwars.wikia.com\/wiki\/Condular", "grid": "M-12", "x": 151.108, "y": -274.106, "sector": "", "region": "Core", "canon": 0, "zm": 2, "name0": "condular", "name1": "", "name2": "", "lat": -34.61426993, "long": 20.36140666 }, "geometry": { "type": "Point", "coordinates": [ 20.36140666, -34.61426993 ] } },
{ "type": "Feature", "properties": { "cartodb_id": 174, "objectid": 174, "name": "Gandeal", "uid": 174, "link": "http:\/\/starwars.wikia.com\/wiki\/Gandeal", "grid": "M-12", "x": 146.043, "y": -283.287, "sector": "", "region": "Core", "canon": 0, "zm": 2, "name0": "gandeal", "name1": "", "name2": "", "lat": -35.6261343, "long": 19.67886306 }, "geometry": { "type": "Point", "coordinates": [ 19.67886306, -35.6261343 ] } },
{ "type": "Feature", "properties": { "cartodb_id": 175, "objectid": 175, "name": "Danteel", "uid": 175, "link": "http:\/\/starwars.wikia.com\/wiki\/Danteel", "grid": "M-12", "x": 115.793, "y": -261.304, "sector": "", "region": "Core", "canon": 0, "zm": 2, "name0": "danteel", "name1": "", "name2": "", "lat": -33.18250158, "long": 15.60281101 }, "geometry": { "type": "Point", "coordinates": [ 15.60281101, -33.18250158 ] } },
{ "type": "Feature", "properties": { "cartodb_id": 176, "objectid": 176, "name": "Kobaria", "uid": 176, "link": "http:\/\/starwars.wikia.com\/wiki\/Kobaria", "grid": "M-12", "x": 111.601, "y": -265.126, "sector": "", "region": "Core", "canon": 0, "zm": 2, "name0": "kobaria", "name1": "", "name2": "", "lat": -33.61247776, "long": 15.03794734 }, "geometry": { "type": "Point", "coordinates": [ 15.03794734, -33.61247776 ] } },
{ "type": "Feature", "properties": { "cartodb_id": 177, "objectid": 177, "name": "Sestria", "uid": 177, "link": "http:\/\/starwars.wikia.com\/wiki\/Sestria", "grid": "M-13", "x": 102.724, "y": -304.827, "sector": "", "region": "Core", "canon": 0, "zm": 2, "name0": "sestria", "name1": "", "name2": "", "lat": -37.95024132, "long": 13.84176546 }, "geometry": { "type": "Point", "coordinates": [ 13.84176546, -37.95024132 ] } },
{ "type": "Feature", "properties": { "cartodb_id": 178, "objectid": 178, "name": "Coruscant", "uid": 178, "link": "http:\/\/starwars.wikia.com\/wiki\/Coruscant", "grid": "K-9", "x": 0.0, "y": 0.0, "sector": "", "region": "Core", "canon": 1, "zm": 0, "name0": "coruscant", "name1": "", "name2": "", "lat": 1.0000000000000001e-09, "long": 0.0 }, "geometry": { "type": "Point", "coordinates": [ 0.0, 0.000000001 ] } },
{ "type": "Feature", "properties": { "cartodb_id": 179, "objectid": 179, "name": "Thrantin", "uid": 179, "link": "http:\/\/starwars.wikia.com\/wiki\/Thrantin", "grid": "J-9", "x": -145.977, "y": 49.154, "sector": "Ollonir Boundaries[", "region": "Colonies", "canon": 0, "zm": 2, "name0": "thrantin", "name1": "", "name2": "", "lat": 6.608696874, "long": -19.6699398 }, "geometry": { "type": "Point", "coordinates": [ -19.6699398, 6.608696874 ] } },
{ "type": "Feature", "properties": { "cartodb_id": 180, "objectid": 180, "name": "Batorine", "uid": 180, "link": "http:\/\/starwars.wikia.com\/wiki\/Batorine", "grid": "J-9", "x": -130.359, "y": 89.431, "sector": "", "region": "Colonies", "canon": 0, "zm": 2, "name0": "batorine", "name1": "", "name2": "", "lat": 11.96264862, "long": -17.56554575 }, "geometry": { "type": "Point", "coordinates": [ -17.56554575, 11.96264862 ] } },
{ "type": "Feature", "properties": { "cartodb_id": 181, "objectid": 181, "name": "Phu", "uid": 181, "link": "http:\/\/starwars.wikia.com\/wiki\/Phu", "grid": "J-13", "x": -107.075, "y": -374.057, "sector": "", "region": "Colonies", "canon": 1, "zm": 1, "name0": "phu", "name1": "", "name2": "", "lat": -44.93217646, "long": -14.42812093 }, "geometry": { "type": "Point", "coordinates": [ -14.42812093, -44.93217646 ] } },
{ "type": "Feature", "properties": { "cartodb_id": 182, "objectid": 182, "name": "Trunska", "uid": 182, "link": "http:\/\/starwars.wikia.com\/wiki\/Trunska", "grid": "J-13", "x": -115.624, "y": -357.946, "sector": "", "region": "Colonies", "canon": 0, "zm": 2, "name0": "trunska", "name1": "", "name2": "", "lat": -43.37478212, "long": -15.57999978 }, "geometry": { "type": "Point", "coordinates": [ -15.57999978, -43.37478212 ] } },
{ "type": "Feature", "properties": { "cartodb_id": 183, "objectid": 183, "name": "Candoria", "uid": 183, "link": "http:\/\/starwars.wikia.com\/wiki\/Candoria", "grid": "J-13", "x": -127.789, "y": -335.424, "sector": "", "region": "Colonies", "canon": 0, "zm": 2, "name0": "candoria", "name1": "", "name2": "", "lat": -41.12884525, "long": -17.21921198 }, "geometry": { "type": "Point", "coordinates": [ -17.21921198, -41.12884525 ] } },
{ "type": "Feature", "properties": { "cartodb_id": 184, "objectid": 184, "name": "Hjaff", "uid": 184, "link": "http:\/\/starwars.wikia.com\/wiki\/Hjaff", "grid": "J-13", "x": -127.46, "y": -304.683, "sector": "", "region": "Colonies", "canon": 0, "zm": 2, "name0": "hjaff", "name1": "", "name2": "", "lat": -37.93496391, "long": -17.17490895 }, "geometry": { "type": "Point", "coordinates": [ -17.17490895, -37.93496391 ] } },
{ "type": "Feature", "properties": { "cartodb_id": 185, "objectid": 185, "name": "Sif-Uwana", "uid": 185, "link": "http:\/\/starwars.wikia.com\/wiki\/Sif-Uwana", "grid": "K-8", "x": -67.725, "y": 111.459, "sector": "", "region": "Colonies", "canon": 0, "zm": 2, "name0": "sif-uwana", "name1": "sifuwana", "name2": "", "lat": 14.84972783, "long": -9.125818042000001 }, "geometry": { "type": "Point", "coordinates": [ -9.125818042, 14.84972783 ] } },
{ "type": "Feature", "properties": { "cartodb_id": 186, "objectid": 186, "name": "Vakkar", "uid": 186, "link": "http:\/\/starwars.wikia.com\/wiki\/Vakkar", "grid": "K-9", "x": -94.686, "y": 97.157, "sector": "Fakir", "region": "Colonies", "canon": 0, "zm": 1, "name0": "vakkar", "name1": "", "name2": "", "lat": 12.97919075, "long": -12.75866671 }, "geometry": { "type": "Point", "coordinates": [ -12.75866671, 12.97919075 ] } },
{ "type": "Feature", "properties": { "cartodb_id": 187, "objectid": 187, "name": "Palanhi", "uid": 187, "link": "http:\/\/starwars.wikia.com\/wiki\/Palanhi", "grid": "K-9", "x": -66.41, "y": 97.65, "sector": "", "region": "Colonies", "canon": 0, "zm": 1, "name0": "palanhi", "name1": "", "name2": "", "lat": 13.04393905, "long": -8.948605912 }, "geometry": { "type": "Point", "coordinates": [ -8.948605912, 13.04393905 ] } },
{ "type": "Feature", "properties": { "cartodb_id": 188, "objectid": 188, "name": "Venjagga", "uid": 188, "link": "http:\/\/starwars.wikia.com\/wiki\/Venjagga", "grid": "K-9", "x": -53.259, "y": 66.087, "sector": "", "region": "Colonies", "canon": 0, "zm": 2, "name0": "venjagga", "name1": "", "name2": "", "lat": 8.869369404, "long": -7.176484608 }, "geometry": { "type": "Point", "coordinates": [ -7.176484608, 8.869369404 ] } },
{ "type": "Feature", "properties": { "cartodb_id": 189, "objectid": 189, "name": "Ord Mirit", "uid": 189, "link": "http:\/\/starwars.wikia.com\/wiki\/Ord_Mirit", "grid": "K-9", "x": -47.341, "y": 74.142, "sector": "", "region": "Colonies", "canon": 0, "zm": 2, "name0": "ord mirit", "name1": "", "name2": "", "lat": 9.940187572, "long": -6.379030022 }, "geometry": { "type": "Point", "coordinates": [ -6.379030022, 9.940187572 ] } },
{ "type": "Feature", "properties": { "cartodb_id": 190, "objectid": 190, "name": "Borleias", "uid": 190, "link": "http:\/\/starwars.wikia.com\/wiki\/Borleias", "grid": "K-9", "x": -41.258, "y": 63.128, "sector": "", "region": "Colonies", "canon": 0, "zm": 1, "name0": "borleias", "name1": "", "name2": "", "lat": 8.475201599, "long": -5.559423919 }, "geometry": { "type": "Point", "coordinates": [ -5.559423919, 8.475201599 ] } },
{ "type": "Feature", "properties": { "cartodb_id": 191, "objectid": 191, "name": "Noquivzor", "uid": 191, "link": "http:\/\/starwars.wikia.com\/wiki\/Noquivzor", "grid": "K-9", "x": -46.026, "y": 99.459, "sector": "", "region": "Colonies", "canon": 0, "zm": 2, "name0": "noquivzor", "name1": "", "name2": "", "lat": 13.2812039, "long": -6.201817892 }, "geometry": { "type": "Point", "coordinates": [ -6.201817892, 13.2812039 ] } },
{ "type": "Feature", "properties": { "cartodb_id": 192, "objectid": 192, "name": "Ophideraan", "uid": 192, "link": "http:\/\/starwars.wikia.com\/wiki\/Ophideraan", "grid": "K-13", "x": -11.234, "y": -387.866, "sector": "", "region": "Colonies", "canon": 0, "zm": 2, "name0": "ophideraan", "name1": "", "name2": "", "lat": -46.23436093, "long": -1.513786933 }, "geometry": { "type": "Point", "coordinates": [ -1.513786933, -46.23436093 ] } },
{ "type": "Feature", "properties": { "cartodb_id": 193, "objectid": 193, "name": "Whelori", "uid": 193, "link": "http:\/\/starwars.wikia.com\/wiki\/Whelori", "grid": "K-13", "x": -28.66, "y": -389.51, "sector": "", "region": "Colonies", "canon": 0, "zm": 2, "name0": "whelori", "name1": "", "name2": "", "lat": -46.38737134, "long": -3.86184766 }, "geometry": { "type": "Point", "coordinates": [ -3.86184766, -46.38737134 ] } },
{ "type": "Feature", "properties": { "cartodb_id": 194, "objectid": 194, "name": "Vaykaaris", "uid": 194, "link": "http:\/\/starwars.wikia.com\/wiki\/Vaykaaris", "grid": "K-13", "x": -78.307, "y": -384.742, "sector": "", "region": "Colonies", "canon": 0, "zm": 2, "name0": "vaykaaris", "name1": "", "name2": "", "lat": -45.94246246, "long": -10.55160558 }, "geometry": { "type": "Point", "coordinates": [ -10.55160558, -45.94246246 ] } },
{ "type": "Feature", "properties": { "cartodb_id": 195, "objectid": 195, "name": "Zenox Cluster", "uid": 195, "link": "http:\/\/starwars.wikia.com\/wiki\/Zenox_Cluster", "grid": "K-13", "x": -74.197, "y": -361.892, "sector": "", "region": "Colonies", "canon": 0, "zm": 2, "name0": "zenox cluster", "name1": "", "name2": "", "lat": -43.75998485, "long": -9.997817673 }, "geometry": { "type": "Point", "coordinates": [ -9.997817673, -43.75998485 ] } },
{ "type": "Feature", "properties": { "cartodb_id": 196, "objectid": 196, "name": "Omar", "uid": 196, "link": "http:\/\/starwars.wikia.com\/wiki\/Omar", "grid": "K-13", "x": -53.483, "y": -340.192, "sector": "", "region": "Colonies", "canon": 0, "zm": 2, "name0": "omar", "name1": "", "name2": "", "lat": -41.61093165, "long": -7.20672662 }, "geometry": { "type": "Point", "coordinates": [ -7.20672662, -41.61093165 ] } },
{ "type": "Feature", "properties": { "cartodb_id": 197, "objectid": 197, "name": "Baradas", "uid": 197, "link": "http:\/\/starwars.wikia.com\/wiki\/Baradas", "grid": "L-8", "x": 8.06, "y": 115.569, "sector": "", "region": "Colonies", "canon": 0, "zm": 2, "name0": "baradas", "name1": "", "name2": "", "lat": 15.38434975, "long": 1.086030969 }, "geometry": { "type": "Point", "coordinates": [ 1.086030969, 15.38434975 ] } },
{ "type": "Feature", "properties": { "cartodb_id": 198, "objectid": 198, "name": "Ord Antalaha", "uid": 198, "link": "http:\/\/starwars.wikia.com\/wiki\/Ord_Antalaha", "grid": "L-8", "x": 24.951, "y": 102.007, "sector": "", "region": "Colonies", "canon": 0, "zm": 2, "name0": "ord antalaha", "name1": "", "name2": "", "lat": 13.6151375, "long": 3.362099267 }, "geometry": { "type": "Point", "coordinates": [ 3.362099267, 13.6151375 ] } },
{ "type": "Feature", "properties": { "cartodb_id": 199, "objectid": 199, "name": "Nierport", "uid": 199, "link": "http:\/\/starwars.wikia.com\/wiki\/Nierport", "grid": "L-8", "x": 64.529, "y": 115.569, "sector": "", "region": "Colonies", "canon": 0, "zm": 2, "name0": "nierport", "name1": "", "name2": "", "lat": 15.38434975, "long": 8.695076815 }, "geometry": { "type": "Point", "coordinates": [ 8.695076815, 15.38434975 ] } },
{ "type": "Feature", "properties": { "cartodb_id": 200, "objectid": 200, "name": "Uviuy Exen", "uid": 200, "link": "http:\/\/starwars.wikia.com\/wiki\/Uviuy_Exen", "grid": "L-9", "x": 55.282, "y": 89.184, "sector": "", "region": "Colonies", "canon": 0, "zm": 1, "name0": "uviuy exen", "name1": "", "name2": "", "lat": 11.93014099, "long": 7.449054023 }, "geometry": { "type": "Point", "coordinates": [ 7.449054023, 11.93014099 ] } },
{ "type": "Feature", "properties": { "cartodb_id": 201, "objectid": 201, "name": "Doldrums", "uid": 201, "link": "http:\/\/starwars.wikia.com\/wiki\/Doldrums", "grid": "L-9", "x": 84.749, "y": 88.321, "sector": "", "region": "Colonies", "canon": 0, "zm": 2, "name0": "doldrums", "name1": "", "name2": "", "lat": 11.81633367, "long": 11.41971332 }, "geometry": { "type": "Point", "coordinates": [ 11.41971332, 11.81633367 ] } },
{ "type": "Feature", "properties": { "cartodb_id": 202, "objectid": 202, "name": "Delle", "uid": 202, "link": "http:\/\/starwars.wikia.com\/wiki\/Delle", "grid": "L-9", "x": 89.064, "y": 53.798, "sector": "", "region": "Colonies", "canon": 0, "zm": 2, "name0": "delle", "name1": "", "name2": "", "lat": 7.229916396, "long": 12.00119062 }, "geometry": { "type": "Point", "coordinates": [ 12.00119062, 7.229916396 ] } },
{ "type": "Feature", "properties": { "cartodb_id": 203, "objectid": 203, "name": "Dankayo", "uid": 203, "link": "http:\/\/starwars.wikia.com\/wiki\/Dankayo", "grid": "L-9", "x": 47.761, "y": 99.664, "sector": "", "region": "Colonies", "canon": 0, "zm": 2, "name0": "dankayo", "name1": "", "name2": "", "lat": 13.30815123, "long": 6.435622153 }, "geometry": { "type": "Point", "coordinates": [ 6.435622153, 13.30815123 ] } },
{ "type": "Feature", "properties": { "cartodb_id": 204, "objectid": 204, "name": "Kiribi", "uid": 204, "link": "http:\/\/starwars.wikia.com\/wiki\/Kiribi", "grid": "L-9", "x": 99.668, "y": 99.294, "sector": "", "region": "Colonies", "canon": 0, "zm": 2, "name0": "kiribi", "name1": "", "name2": "", "lat": 13.25964388, "long": 13.42996342 }, "geometry": { "type": "Point", "coordinates": [ 13.42996342, 13.25964388 ] } },
{ "type": "Feature", "properties": { "cartodb_id": 205, "objectid": 205, "name": "Nara", "uid": 205, "link": "http:\/\/starwars.wikia.com\/wiki\/Nara", "grid": "L-9", "x": 27.91, "y": 66.744, "sector": "", "region": "Colonies", "canon": 0, "zm": 2, "name0": "nara", "name1": "", "name2": "", "lat": 8.956905486, "long": 3.760826561 }, "geometry": { "type": "Point", "coordinates": [ 3.760826561, 8.956905486 ] } },
{ "type": "Feature", "properties": { "cartodb_id": 206, "objectid": 206, "name": "Wakeelmui", "uid": 206, "link": "http:\/\/starwars.wikia.com\/wiki\/Wakeelmui", "grid": "L-9", "x": 53.556, "y": 70.443, "sector": "", "region": "Colonies", "canon": 0, "zm": 2, "name0": "wakeelmui", "name1": "", "name2": "", "lat": 9.448897572, "long": 7.216463102 }, "geometry": { "type": "Point", "coordinates": [ 7.216463102, 9.448897572 ] } },
{ "type": "Feature", "properties": { "cartodb_id": 207, "objectid": 207, "name": "Jatir", "uid": 207, "link": "http:\/\/starwars.wikia.com\/wiki\/Jatir", "grid": "L-9", "x": 92.961, "y": 40.536, "sector": "", "region": "Colonies", "canon": 0, "zm": 2, "name0": "jatir", "name1": "", "name2": "", "lat": 5.453856042, "long": 12.52620752 }, "geometry": { "type": "Point", "coordinates": [ 12.52620752, 5.453856042 ] } },
{ "type": "Feature", "properties": { "cartodb_id": 208, "objectid": 208, "name": "Giju", "uid": 208, "link": "http:\/\/starwars.wikia.com\/wiki\/Giju", "grid": "L-13", "x": 3.068, "y": -354.823, "sector": "", "region": "Colonies", "canon": 1, "zm": 1, "name0": "giju", "name1": "", "name2": "", "lat": -43.06808348, "long": 0.4133949839 }, "geometry": { "type": "Point", "coordinates": [ 0.4133949839, -43.06808348 ] } },
{ "type": "Feature", "properties": { "cartodb_id": 209, "objectid": 209, "name": "Cilpar", "uid": 209, "link": "http:\/\/starwars.wikia.com\/wiki\/Cilpar", "grid": "L-13", "x": 1.26, "y": -367.974, "sector": "", "region": "Colonies", "canon": 0, "zm": 2, "name0": "cilpar", "name1": "", "name2": "", "lat": -44.34901088, "long": 0.1697283051 }, "geometry": { "type": "Point", "coordinates": [ 0.1697283051, -44.34901088 ] } },
{ "type": "Feature", "properties": { "cartodb_id": 210, "objectid": 210, "name": "Vindalia", "uid": 210, "link": "http:\/\/starwars.wikia.com\/wiki\/Vindalia", "grid": "L-13", "x": 14.247, "y": -348.576, "sector": "", "region": "Colonies", "canon": 0, "zm": 2, "name0": "vindalia", "name1": "", "name2": "", "lat": -42.45006052, "long": 1.919698092 }, "geometry": { "type": "Point", "coordinates": [ 1.919698092, -42.45006052 ] } },
{ "type": "Feature", "properties": { "cartodb_id": 211, "objectid": 211, "name": "Fondor", "uid": 211, "link": "http:\/\/starwars.wikia.com\/wiki\/Fondor", "grid": "L-13", "x": 25.261, "y": -369.618, "sector": "", "region": "Colonies", "canon": 1, "zm": 1, "name0": "fondor", "name1": "", "name2": "", "lat": -44.50720121, "long": 3.403849683 }, "geometry": { "type": "Point", "coordinates": [ 3.403849683, -44.50720121 ] } },
{ "type": "Feature", "properties": { "cartodb_id": 212, "objectid": 212, "name": "Ghorman", "uid": 212, "link": "http:\/\/starwars.wikia.com\/wiki\/Ghorman", "grid": "L-13", "x": 28.056, "y": -397.729, "sector": "", "region": "Colonies", "canon": 1, "zm": 1, "name0": "ghorman", "name1": "", "name2": "", "lat": -47.14601033, "long": 3.780425461 }, "geometry": { "type": "Point", "coordinates": [ 3.780425461, -47.14601033 ] } },
{ "type": "Feature", "properties": { "cartodb_id": 213, "objectid": 213, "name": "Mrlsst", "uid": 213, "link": "http:\/\/starwars.wikia.com\/wiki\/Mrlsst", "grid": "L-13", "x": 29.042, "y": -376.851, "sector": "", "region": "Colonies", "canon": 0, "zm": 2, "name0": "mrlsst", "name1": "", "name2": "", "lat": -45.19815201, "long": 3.913334558 }, "geometry": { "type": "Point", "coordinates": [ 3.913334558, -45.19815201 ] } },
{ "type": "Feature", "properties": { "cartodb_id": 214, "objectid": 214, "name": "Bassadro", "uid": 214, "link": "http:\/\/starwars.wikia.com\/wiki\/Bassadro", "grid": "L-13", "x": 62.249, "y": -374.221, "sector": "", "region": "Colonies", "canon": 0, "zm": 2, "name0": "bassadro", "name1": "", "name2": "", "lat": -44.94785634, "long": 8.387940849 }, "geometry": { "type": "Point", "coordinates": [ 8.387940849, -44.94785634 ] } },
{ "type": "Feature", "properties": { "cartodb_id": 215, "objectid": 215, "name": "Teyr Vulvarch", "uid": 215, "link": "http:\/\/starwars.wikia.com\/wiki\/Teyr_Vulvarch", "grid": "L-13", "x": 84.607, "y": -380.961, "sector": "", "region": "Colonies", "canon": 0, "zm": 1, "name0": "teyr vulvarch", "name1": "", "name2": "", "lat": -45.58704454, "long": 11.40054706 }, "geometry": { "type": "Point", "coordinates": [ 11.40054706, -45.58704454 ] } },
{ "type": "Feature", "properties": { "cartodb_id": 216, "objectid": 216, "name": "Laakteen Depot", "uid": 216, "link": "http:\/\/starwars.wikia.com\/wiki\/Laakteen_Depot", "grid": "L-13", "x": 3.232, "y": -379.482, "sector": "", "region": "Colonies", "canon": 0, "zm": 2, "name0": "laakteen depot", "name1": "", "name2": "", "lat": -45.4473515, "long": 0.4355465009 }, "geometry": { "type": "Point", "coordinates": [ 0.4355465009, -45.4473515 ] } },
{ "type": "Feature", "properties": { "cartodb_id": 217, "objectid": 217, "name": "Arkania", "uid": 217, "link": "http:\/\/starwars.wikia.com\/wiki\/Arkania", "grid": "M-8", "x": 109.634, "y": 101.269, "sector": "", "region": "Colonies", "canon": 0, "zm": 1, "name0": "arkania", "name1": "", "name2": "", "lat": 13.51851048, "long": 14.77285583 }, "geometry": { "type": "Point", "coordinates": [ 14.77285583, 13.51851048 ] } },
{ "type": "Feature", "properties": { "cartodb_id": 218, "objectid": 218, "name": "Kluistar", "uid": 218, "link": "http:\/\/starwars.wikia.com\/wiki\/Kluistar", "grid": "M-8", "x": 104.631, "y": 109.1, "sector": "", "region": "Colonies", "canon": 0, "zm": 2, "name0": "kluistar", "name1": "", "name2": "", "lat": 14.54222408, "long": 14.0987522 }, "geometry": { "type": "Point", "coordinates": [ 14.0987522, 14.54222408 ] } },
{ "type": "Feature", "properties": { "cartodb_id": 219, "objectid": 219, "name": "Raithal", "uid": 219, "link": "http:\/\/starwars.wikia.com\/wiki\/Raithal", "grid": "M-9", "x": 149.412, "y": 85.716, "sector": "", "region": "Colonies", "canon": 1, "zm": 2, "name0": "raithal", "name1": "", "name2": "", "lat": 11.47261554, "long": 20.13283054 }, "geometry": { "type": "Point", "coordinates": [ 20.13283054, 11.47261554 ] } },
{ "type": "Feature", "properties": { "cartodb_id": 220, "objectid": 220, "name": "Castell", "uid": 220, "link": "http:\/\/starwars.wikia.com\/wiki\/Castell", "grid": "M-9", "x": 139.529, "y": 80.255, "sector": "", "region": "Colonies", "canon": 1, "zm": 1, "name0": "castell", "name1": "", "name2": "", "lat": 10.75048439, "long": 18.80114368 }, "geometry": { "type": "Point", "coordinates": [ 18.80114368, 10.75048439 ] } },
{ "type": "Feature", "properties": { "cartodb_id": 221, "objectid": 221, "name": "Shulstine", "uid": 221, "link": "http:\/\/starwars.wikia.com\/wiki\/Shulstine", "grid": "M-9", "x": 133.755, "y": 77.81, "sector": "", "region": "Colonies", "canon": 0, "zm": 2, "name0": "shulstine", "name1": "", "name2": "", "lat": 10.42667689, "long": 18.0231582 }, "geometry": { "type": "Point", "coordinates": [ 18.0231582, 10.42667689 ] } },
{ "type": "Feature", "properties": { "cartodb_id": 222, "objectid": 222, "name": "Ifmix", "uid": 222, "link": "http:\/\/starwars.wikia.com\/wiki\/Ifmix", "grid": "M-9", "x": 120.96, "y": 71.932, "sector": "", "region": "Colonies", "canon": 0, "zm": 2, "name0": "ifmix", "name1": "", "name2": "", "lat": 9.646800708000001, "long": 16.29897416 }, "geometry": { "type": "Point", "coordinates": [ 16.29897416, 9.646800708 ] } },
{ "type": "Feature", "properties": { "cartodb_id": 223, "objectid": 223, "name": "Yabol Opa", "uid": 223, "link": "http:\/\/starwars.wikia.com\/wiki\/Yabol_Opa", "grid": "M-9", "x": 109.256, "y": 64.858, "sector": "", "region": "Colonies", "canon": 0, "zm": 1, "name0": "yabol opa", "name1": "", "name2": "", "lat": 8.705803255, "long": 14.72197657 }, "geometry": { "type": "Point", "coordinates": [ 14.72197657, 8.705803255 ] } },
{ "type": "Feature", "properties": { "cartodb_id": 224, "objectid": 224, "name": "Teardrop", "uid": 224, "link": "http:\/\/starwars.wikia.com\/wiki\/Teardrop", "grid": "M-9", "x": 105.71, "y": 45.715, "sector": "", "region": "Colonies", "canon": 0, "zm": 2, "name0": "teardrop", "name1": "", "name2": "", "lat": 6.148137227, "long": 14.24407491 }, "geometry": { "type": "Point", "coordinates": [ 14.24407491, 6.148137227 ] } },
{ "type": "Feature", "properties": { "cartodb_id": 225, "objectid": 225, "name": "Shelkonwa", "uid": 225, "link": "http:\/\/starwars.wikia.com\/wiki\/Shelkonwa", "grid": "M-9", "x": 116.683, "y": 43.126, "sector": "", "region": "Colonies", "canon": 0, "zm": 2, "name0": "shelkonwa", "name1": "", "name2": "", "lat": 5.801146517, "long": 15.72268862 }, "geometry": { "type": "Point", "coordinates": [ 15.72268862, 5.801146517 ] } },
{ "type": "Feature", "properties": { "cartodb_id": 226, "objectid": 226, "name": "Belnar", "uid": 226, "link": "http:\/\/starwars.wikia.com\/wiki\/Belnar", "grid": "M-9", "x": 129.012, "y": 62.113, "sector": "", "region": "Colonies", "canon": 0, "zm": 1, "name0": "belnar", "name1": "", "name2": "", "lat": 8.339975936, "long": 17.38405234 }, "geometry": { "type": "Point", "coordinates": [ 17.38405234, 8.339975936 ] } },
{ "type": "Feature", "properties": { "cartodb_id": 227, "objectid": 227, "name": "Argai Minor", "uid": 227, "link": "http:\/\/starwars.wikia.com\/wiki\/Argai_Minor", "grid": "M-9", "x": 140.972, "y": 52.496, "sector": "", "region": "Colonies", "canon": 0, "zm": 2, "name0": "argai minor", "name1": "", "name2": "", "lat": 7.055818266, "long": 18.99557516 }, "geometry": { "type": "Point", "coordinates": [ 18.99557516, 7.055818266 ] } },
{ "type": "Feature", "properties": { "cartodb_id": 228, "objectid": 228, "name": "Carida", "uid": 228, "link": "http:\/\/starwars.wikia.com\/wiki\/Carida", "grid": "M-9", "x": 151.698, "y": 59.277, "sector": "", "region": "Colonies", "canon": 1, "zm": 0, "name0": "carida", "name1": "", "name2": "", "lat": 7.961723023, "long": 20.44096159 }, "geometry": { "type": "Point", "coordinates": [ 20.44096159, 7.961723023 ] } },
{ "type": "Feature", "properties": { "cartodb_id": 229, "objectid": 229, "name": "Dakshee", "uid": 229, "link": "http:\/\/starwars.wikia.com\/wiki\/Dakshee", "grid": "M-9", "x": 153.671, "y": 50.893, "sector": "", "region": "Colonies", "canon": 0, "zm": 2, "name0": "dakshee", "name1": "", "name2": "", "lat": 6.841427458, "long": 20.70677979 }, "geometry": { "type": "Point", "coordinates": [ 20.70677979, 6.841427458 ] } },
{ "type": "Feature", "properties": { "cartodb_id": 230, "objectid": 230, "name": "Hok", "uid": 230, "link": "http:\/\/starwars.wikia.com\/wiki\/Hok", "grid": "M-9", "x": 176.727, "y": 38.194, "sector": "", "region": "Colonies", "canon": 1, "zm": 1, "name0": "hok", "name1": "", "name2": "", "lat": 5.139631376, "long": 23.81352995 }, "geometry": { "type": "Point", "coordinates": [ 23.81352995, 5.139631376 ] } },
{ "type": "Feature", "properties": { "cartodb_id": 231, "objectid": 231, "name": "Grandine", "uid": 231, "link": "http:\/\/starwars.wikia.com\/wiki\/Grandine", "grid": "M-9", "x": 172.905, "y": 5.274, "sector": "", "region": "Colonies", "canon": 0, "zm": 2, "name0": "grandine", "name1": "", "name2": "", "lat": 0.710678773, "long": 23.29850719 }, "geometry": { "type": "Point", "coordinates": [ 23.29850719, 0.710678773 ] } },
{ "type": "Feature", "properties": { "cartodb_id": 232, "objectid": 232, "name": "Parkis", "uid": 232, "link": "http:\/\/starwars.wikia.com\/wiki\/Parkis", "grid": "M-10", "x": 171.672, "y": -24.07, "sector": "", "region": "Colonies", "canon": 0, "zm": 2, "name0": "parkis", "name1": "", "name2": "", "lat": -3.241617903, "long": 23.13237082 }, "geometry": { "type": "Point", "coordinates": [ 23.13237082, -3.241617903 ] } },
{ "type": "Feature", "properties": { "cartodb_id": 233, "objectid": 233, "name": "Kattada", "uid": 233, "link": "http:\/\/starwars.wikia.com\/wiki\/Kattada", "grid": "M-10", "x": 191.03, "y": -25.056, "sector": "", "region": "Colonies", "canon": 0, "zm": 1, "name0": "kattada", "name1": "", "name2": "", "lat": -3.374305519, "long": 25.74071187 }, "geometry": { "type": "Point", "coordinates": [ 25.74071187, -3.374305519 ] } },
{ "type": "Feature", "properties": { "cartodb_id": 234, "objectid": 234, "name": "Neimoidia", "uid": 234, "link": "http:\/\/starwars.wikia.com\/wiki\/Neimoidia", "grid": "M-10", "x": 188.564, "y": -59.984, "sector": "", "region": "Colonies", "canon": 1, "zm": 1, "name0": "neimoidia", "name1": "", "name2": "", "lat": -8.055989466, "long": 25.40843912 }, "geometry": { "type": "Point", "coordinates": [ 25.40843912, -8.055989466 ] } },